stop_id,stop_name,stop_lat,stop_lon,location_type
2514,ROZIER,45.37597825,4.101052292,0
2578,ROZIER,45.37597825,4.101052292,0
1,EGLISE CHAZEAU,45.37158292,4.277360956,0
1947,EGLISE CHAZEAU,45.37132989,4.277939375,0
2,IMPASSE MALVAL,45.37459456,4.277530293,0
3,IMPASSE MALVAL,45.37482273,4.277346769,0
4,RUE DE L'ABBAYE,45.36977494,4.27679973,0
5,CHAZEAU,45.36763942,4.278512213,0
6,MONTESSUS,45.37607372,4.268006065,0
7,SUPERMARCHE,45.37724636,4.277176305,0
12,SUPERMARCHE,45.37724414,4.277303911,0
8,LA MARTINIERE,45.37746555,4.270774251,0
9,LA MARTINIERE,45.37757627,4.271135632,0
13,LE CORBUSIER,45.37838239,4.282732146,0
14,LES NOYERS,45.37700109,4.287624966,0
15,LES NOYERS,45.37704494,4.287690352,0
16,LES HAUTS NOYERS,45.37779898,4.285737788,0
17,LES HAUTS NOYERS,45.37783949,4.285994583,0
18,RUE DES NOYERS,45.37901879,4.286482989,0
20,RUE DES NOYERS,45.3789516,4.286723231,0
19,CASERNE POMPIERS,45.37900352,4.288385003,0
21,CASERNE POMPIERS,45.37892437,4.288280064,0
22,VERTE COLLINE,45.37609364,4.294219674,0
2040,VERTE COLLINE,45.3763153,4.293895534,0
24,LES NOISETTES,45.37668215,4.290422753,0
25,LES NOISETTES,45.37669315,4.290308227,0
26,CHEMIN DES PRES,45.37743162,4.29438187,0
2042,CHEMIN DES PRES,45.37776504,4.294355347,0
27,LES ROULATTES,45.37894353,4.290783423,0
29,LES ROULATTES,45.37894085,4.290936553,0
28,RUE DE ST-JUST,45.37888626,4.291483686,0
2041,RUE DE ST-JUST,45.37874394,4.291389282,0
30,PABLO NERUDA,45.3787222,4.292116334,0
2043,PABLO NERUDA,45.37893893,4.292072909,0
2515,GARNAUDET,45.38123722,4.096814623,0
2516,GARNAUDET,45.38116708,4.096697478,0
2517,MARTINANGE,45.38000016,4.119183753,0
2518,MARTINANGE,45.37987304,4.11981808,0
34,ZONE COMMERCIALE,45.38051737,4.276920586,0
2429,ZONE COMMERCIALE,45.38054157,4.276563898,0
31,Z.A. PERIVAURE,45.38208933,4.272940497,0
32,Z.A. PERIVAURE,45.38253332,4.272764474,0
35,LOGIS NEUF,45.38315949,4.279707544,0
36,LOGIS NEUF,45.3830197,4.279983573,0
37,PL. CORNICHE,45.37999214,4.283822987,0
38,PL. CORNICHE,45.38008853,4.283456073,0
41,CH.DES MOLIERES,45.38020712,4.289027556,0
42,CH.DES MOLIERES,45.38031615,4.288967553,0
43,BD CORNICHE,45.38188299,4.290963735,0
44,BD CORNICHE,45.38140026,4.290780702,0
45,LES QUATRE VENTS,45.38187854,4.294296413,0
2044,LES QUATRE VENTS,45.38194712,4.294490379,0
46,FAYOL,45.38096417,4.302793989,0
47,FAYOL,45.38163057,4.302255785,0
48,PARPOULIN,45.3808834,4.305332213,0
49,PARPOULIN,45.38106102,4.305466218,0
2519,TALARAND,45.38682465,4.088845,0
2520,TALARAND,45.3865059,4.087941034,0
2521,GABELON,45.3846791,4.137684077,0
2522,GABELON,45.38459156,4.138089855,0
2523,ROCHEGUT,45.38463911,4.149596757,0
2524,ROCHEGUT,45.38452323,4.149529116,0
50,LES PERROTS,45.38830763,4.228881522,0
51,LES PERROTS,45.38844036,4.229013764,0
52,MAIRIE FRAISSES,45.38813887,4.269691083,0
53,MAIRIE FRAISSES,45.38827797,4.269453291,0
54,LA PERIVAURE,45.38575727,4.273145339,0
55,LA PERIVAURE,45.38595801,4.272986343,0
58,PONT-CHANEY,45.38604178,4.283167267,0
59,PONT-CHANEY,45.38572523,4.283258306,0
60,LYCEE A.CAMUS,45.38751178,4.280920195,0
93,LYCEE A.CAMUS,45.3877253,4.280544566,0
61,RUE DE LA LOIRE,45.38706882,4.284646443,0
64,RUE DE LA LOIRE,45.38715065,4.284598238,0
62,HOPITAL FIRMINY,45.38670032,4.289767253,0
63,HOPITAL FIRMINY,45.38689365,4.289518658,0
67,LA PATE,45.38493523,4.290356294,0
68,LA PATE,45.38530328,4.290407587,0
2280,EGLISE CORBUSIER,45.3843602,4.284129777,0
70,AMICALE FAYOL,45.38354681,4.301263881,0
71,AMICALE FAYOL,45.38453942,4.300085925,0
2045,C. C. LES PRAIRIES,45.38709524,4.297520217,0
2046,C. C. LES PRAIRIES,45.38668583,4.297773906,0
74,GAFFARD,45.38480058,4.306710146,0
75,GAFFARD,45.38519784,4.307145695,0
76,STADE GAFFARD,45.38699891,4.30809095,0
77,STADE GAFFARD,45.38753083,4.308544092,0
78,AVENUE DU PARC,45.38781847,4.321248649,0
79,AVENUE DU PARC,45.3879446,4.321240398,0
80,MICHALIERE,45.3864135,4.32686848,0
81,CHARME,45.38765819,4.32469106,0
82,CHARME,45.38821384,4.325324016,0
2525,LA POMASSE,45.38820662,4.083921127,0
2526,LA POMASSE,45.38792282,4.084231427,0
2527,EMILIEUX,45.38906538,4.161797084,0
2528,EMILIEUX,45.38920762,4.162453074,0
83,LA SOULIERE,45.39245291,4.237005448,0
84,LA SOULIERE,45.39258208,4.236818304,0
85,PLACETTE GIRARDS,45.39099037,4.240978248,0
86,PLACETTE GIRARDS,45.39103751,4.240852155,0
87,LES GIRARDS,45.39264665,4.245160479,0
88,LES GIRARDS,45.39310296,4.245840341,0
89,LE SAGNON,45.39233436,4.264371189,0
90,LE SAGNON,45.39224619,4.264265946,0
91,PLACE JEAN RIST,45.3888968,4.26749538,0
92,PLACE JEAN RIST,45.38923772,4.267034735,0
94,PONT DU SAUZE,45.39268581,4.273694122,0
95,PONT DU SAUZE,45.39258077,4.273524414,0
96,CHATEAU LATOUR,45.3911575,4.281367466,0
97,CHATEAU LATOUR,45.39147316,4.281327463,0
98,RUE VERDIE,45.38898105,4.284905264,0
99,PLACE DU BREUIL,45.38913021,4.287183771,0
102,PLACE DU BREUIL,45.38780861,4.288656959,0
104,PLACE DU BREUIL,45.38907172,4.286926289,0
100,LES HALLES,45.39121986,4.289645657,0
101,LES HALLES,45.39114295,4.289413056,0
103,INDUSTRIE,45.38957162,4.287671852,0
105,GARE FIRMINY,45.39097147,4.286354607,0
107,GARE FIRMINY,45.39103665,4.286229186,0
108,GARE FIRMINY,45.39097147,4.286354607,0
109,PLACE FERRER,45.39119796,4.290896504,0
110,PLACE FERRER,45.39134275,4.290850526,0
111,LE MAS,45.39294284,4.293001598,0
157,LE MAS,45.39304516,4.293324514,0
158,LE MAS,45.3936487,4.291749313,0
159,LE MAS,45.3936334,4.291595507,0
2047,A. BOISSIER,45.38939918,4.294945368,0
2048,A. BOISSIER,45.38927372,4.29491539,0
112,BD D'AUVERGNE,45.39201235,4.316162442,0
113,BD D'AUVERGNE,45.39190495,4.315622184,0
114,LE BOUCHET,45.38934191,4.318570176,0
115,LE BOUCHET,45.38928765,4.319091858,0
116,LA ROMIERE,45.38893698,4.322616936,0
117,LA ROMIERE,45.38914967,4.323812291,0
118,PYRENEES,45.39044415,4.326413054,0
119,PYRENEES,45.39012939,4.326401746,0
120,TOURNEBISE,45.38771626,4.326481079,0
2049,ESPACE CAMUS,45.39054341,4.324884026,0
2050,ESPACE CAMUS,45.39073067,4.32498015,0
127,COUBERTIN,45.39082312,4.338930172,0
128,COUBERTIN,45.390902,4.339047969,0
129,LES ESSERTINES,45.38966502,4.455225837,0
130,LES ESSERTINES,45.3898004,4.455205471,0
131,BARBANCHE VILL,45.38949778,4.478592155,0
132,BARBANCHE VILL,45.38958141,4.478454897,0
133,BARBANCHE PLAT.,45.38898512,4.48185471,0
134,BARBANCHE PLAT.,45.38914167,4.481669195,0
2529,MIZERIECQ,45.39293394,4.080264432,0
2530,MIZERIECQ,45.39341279,4.079564312,0
2531,CHATEAU LE BOIS,45.39262782,4.177738341,0
2532,CHATEAU LE BOIS,45.39309584,4.178277536,0
135,SAINT-PAUL,45.39797573,4.226018633,0
136,SAINT-PAUL,45.39741721,4.22764727,0
137,MAPAD,45.39746795,4.228900739,0
138,NEUF PONTS,45.3962288,4.232983932,0
139,NEUF PONTS,45.39625346,4.234709073,0
140,MAIRIE ST-PAUL,45.39701864,4.24155595,0
2437,CROIX DU POIRIER,45.39762255,4.244131306,0
2438,CROIX DU POIRIER,45.39755082,4.244116063,0
141,CASE AU BOIS,45.395613,4.250077924,0
142,CASE AU BOIS,45.3957468,4.25014641,0
143,LA RIVE,45.39775977,4.258160763,0
144,LA RIVE,45.39767137,4.258068285,0
145,GARE FRAISSES,45.39514796,4.261940185,0
146,GARE FRAISSES,45.3957054,4.260924988,0
147,PASTEUR,45.39770279,4.264072688,0
148,PASTEUR,45.3976453,4.264275055,0
149,PARC HOLTZER,45.39351578,4.269942615,0
150,PARC HOLTZER,45.39369329,4.269565648,0
151,LE VIGNERON,45.39530918,4.266671602,0
152,LE VIGNERON,45.39501764,4.266878573,0
153,COMBE BLANCHE,45.39375731,4.277282257,0
154,COMBE BLANCHE,45.39384813,4.277234351,0
155,LE SABLAT,45.39406183,4.279949553,0
156,LE SABLAT,45.39391161,4.279791015,0
160,L'ECHAPRE,45.39334686,4.296643157,0
161,L'ECHAPRE,45.39341206,4.296517743,0
162,RUE D. ABATTOIRS,45.39641317,4.291131631,0
163,RUE D. ABATTOIRS,45.39605863,4.291336255,0
164,LA MALAFOLIE,45.39411455,4.302622233,0
165,LA MALAFOLIE,45.39408104,4.303502335,0
166,LE BEC,45.39468407,4.30859443,0
167,LE BEC,45.39474589,4.308660494,0
168,LES PLATANES,45.39529535,4.31422339,0
169,LES PLATANES,45.39525388,4.313008508,0
170,LES MOLIERES,45.39585911,4.319978512,0
171,LES MOLIERES,45.3957902,4.317779123,0
172,CROIX BLEUE,45.39330487,4.320908819,0
173,CROIX BLEUE,45.39337031,4.320770669,0
174,GARE CHAMBON,45.39499704,4.322910888,0
175,GARE CHAMBON,45.39518726,4.322841074,0
176,LYCEE  A.TESTUD,45.39636891,4.320660963,0
177,CHATEAU D'EAU,45.39309407,4.326176183,0
178,CHATEAU D'EAU,45.39302725,4.326390909,0
179,POLE DE SERVICES,45.39464211,4.323638966,0
180,POLE DE SERVICES,45.3946651,4.323358795,0
2051,LA COTILLE,45.39306731,4.325153445,0
2052,LA COTILLE,45.39318058,4.325361868,0
181,MAIRIE CHAMBON 2,45.39604479,4.32269301,0
182,EGLISE CHAMBON 2,45.39642986,4.327343407,0
183,CIMETIERE,45.3946177,4.335082313,0
188,CIMETIERE,45.39507581,4.336133433,0
184,LAGRANGE,45.39207283,4.339997115,0
185,LAGRANGE,45.39280792,4.339653312,0
186,STADE POURATTE,45.39350737,4.338286423,0
187,STADE POURATTE,45.39329726,4.337959521,0
189,NIONNIERE,45.39461373,4.342324238,0
190,NIONNIERE,45.39482121,4.341795301,0
191,EAUX VIVES,45.39442325,4.345408306,0
192,EAUX VIVES,45.39432364,4.34544301,0
2533,GRENIECQ,45.39807748,4.077028909,0
2534,GRENIECQ,45.39777906,4.076546955,0
2535,POMMERLET,45.3996061,4.152207051,0
2536,POMMERLET,45.3995329,4.15228129,0
2537,CHAIZENEUVE,45.40020665,4.163377729,0
2538,CHAIZENEUVE,45.40014265,4.163439483,0
2539,CROIX STE-AGATHE,45.39744289,4.181500295,0
2540,CROIX STE-AGATHE,45.39749474,4.181629749,0
193,LE POCHET,45.40332992,4.242424549,0
222,LE POCHET,45.4035414,4.242687313,0
194,MAIRIE D'UNIEUX,45.39958893,4.262196772,0
196,MAIRIE D'UNIEUX,45.39970563,4.262213603,0
195,COLL. LA RIVE,45.39971261,4.259199307,0
197,COLL. LA RIVE,45.39985321,4.259395791,0
198,COLL. LA RIVE,45.39988632,4.259562996,0
199,PONT D'UNIEUX,45.40271701,4.260312776,0
200,PONT D'UNIEUX,45.40212565,4.260164493,0
2281,PL. DE LA BARGE,45.39943035,4.290471708,0
2282,PL. DE LA BARGE,45.39959067,4.29056678,0
203,MAIRIE CHAMBON 1,45.39737082,4.324030656,0
204,EGLISE CHAMBON 1,45.39750347,4.326181318,0
205,EGLISE CHAMBON 1,45.39751519,4.32602846,0
206,PISCINE ONDAINE,45.39748082,4.331481394,0
207,PISCINE ONDAINE,45.39784251,4.330881303,0
208,COLL. FOURNEYRON,45.39832052,4.33484551,0
209,COLL. FOURNEYRON,45.39834117,4.334194809,0
2053,COLL. FOURNEYRON,45.39834117,4.334194809,0
210,TRABLAINE,45.39874928,4.337032485,0
211,TRABLAINE,45.39883218,4.33792963,0
212,PONTCHARRA,45.39889667,4.341355285,0
216,PONTCHARRA,45.39897908,4.342277969,0
213,GYMNASE CHAMBON,45.39725086,4.346800972,0
214,GYMNASE CHAMBON,45.3973228,4.346803583,0
215,COTATAY,45.39839487,4.347736645,0
217,COTATAY,45.3982542,4.347552708,0
218,MONTRAMBERT,45.40000772,4.35261098,0
219,MONTRAMBERT,45.40001902,4.352981835,0
2054,MELINE,45.39858699,4.355535505,0
2055,MELINE,45.39859367,4.355663484,0
2056,HAUTS ONDAINE,45.3978672,4.358012856,0
2057,HAUTS ONDAINE,45.39765186,4.357481287,0
2058,DRAMOISON BAS,45.39984239,4.362236476,0
2059,DRAMOISON BAS,45.39979932,4.361634527,0
2060,DRAMOISON HAUT,45.39828407,4.364299885,0
2061,DRAMOISON HAUT,45.39843625,4.364343778,0
2062,JULES VALLES,45.40022381,4.367985959,0
220,FONT MORA,45.39718255,4.456011618,0
221,FONT MORA,45.39711547,4.456226204,0
2541,BOURG ST-NIZIER,45.40379996,4.081666784,0
2542,BOURG ST-NIZIER,45.40381195,4.081475556,0
2543,BOURG ST-MAURICE,45.40318148,4.182738944,0
2544,BOURG ST-MAURICE,45.40295821,4.182092805,0
2546,LES 3 ROUTES,45.40068874,4.181659521,0
2547,LES 3 ROUTES,45.40062768,4.181542527,0
2579,LES 3 ROUTES,45.40024349,4.181376448,0
223,LE FUMANT,45.40476492,4.244811684,0
224,LE FUMANT,45.4048349,4.244929067,0
225,ROGER SALENGRO,45.40428308,4.257684534,0
226,ROGER SALENGRO,45.40441732,4.257727515,0
227,FENDERIE BOIRON,45.40676664,4.255598936,0
250,FENDERIE BOIRON,45.40738625,4.257766648,0
228,PENEL,45.40470351,4.259398143,0
229,DUSSAUZE,45.404826,4.264295088,0
230,DUSSAUZE,45.40483869,4.264602122,0
231,BOURG D'UNIEUX,45.40581386,4.262847592,0
232,BOURG D'UNIEUX,45.40630619,4.26143392,0
233,PONT HOPITAL,45.40598116,4.267746211,0
234,PONT HOPITAL,45.40622752,4.267550403,0
235,VAL RONZIERE,45.40646594,4.265731885,0
236,VAL RONZIERE,45.40659776,4.265915329,0
237,NADELLA,45.40111542,4.356049237,0
238,NADELLA,45.40127982,4.356412911,0
2063,PLEIN SOLEIL,45.41013286,4.364465528,0
2064,PLEIN SOLEIL,45.41027744,4.364432494,0
2065,LE MONTCEL,45.40908188,4.365845177,0
2066,LE MONTCEL,45.40913514,4.365885457,0
2067,CITE DES MAS,45.40724165,4.366582599,0
2068,CITE DES MAS,45.40734864,4.366637624,0
2069,LA RECAMIERE,45.40509979,4.36559704,0
2070,LA RECAMIERE,45.4052019,4.365920161,0
2071,GARE RICAMARIE,45.40398514,4.360573996,0
2072,GARE RICAMARIE,45.4039812,4.360791024,0
239,LA VERRERIE,45.40286022,4.361567621,0
240,LA VERRERIE,45.40279731,4.361067112,0
241,BLACHIER,45.40320943,4.363151678,0
242,BLACHIER,45.40341628,4.365139334,0
243,EGLISE RICAMARIE,45.40387986,4.366369929,0
244,EGLISE RICAMARIE,45.40438761,4.368138714,0
245,DELAYNAUD,45.4049164,4.372207827,0
246,DELAYNAUD,45.40514117,4.371232402,0
2548,RIOFOL,45.40798203,4.078924273,0
2549,RIOFOL,45.4076726,4.077994765,0
2550,GENEVIECQ,45.40920459,4.104180619,0
2551,GENEVIECQ,45.40924683,4.10378594,0
2552,ROUTE ABOEN,45.4075146,4.129458935,0
2553,ROUTE ABOEN,45.40767956,4.129272655,0
2554,MONTCOUDIOL,45.40590262,4.138476574,0
2555,MONTCOUDIOL,45.40548239,4.138309608,0
2556,GOURGOIS,45.40751716,4.198545641,0
2557,GOURGOIS,45.40759443,4.198228863,0
247,LE PERTUISET,45.40902462,4.250924676,0
249,LE PERTUISET,45.4088917,4.251328898,0
2558,LE PERTUISET,45.40898251,4.251280936,0
2559,LA MURE CALOIRE,45.4085355,4.246909047,0
2560,LA MURE CALOIRE,45.40843436,4.24650952,0
2561,CURSIEUX,45.40418877,4.23374196,0
2562,CURSIEUX,45.40327664,4.233404131,0
2283,CROIX DE MARLET,45.40938311,4.294579021,0
2284,CROIX DE MARLET,45.40935322,4.29474405,0
253,CROIX DE L'ORME,45.40720837,4.380238557,0
254,CROIX DE L'ORME,45.40743822,4.380464229,0
255,SOLAURE,45.4086095,4.381861724,0
256,SOLAURE,45.40881878,4.382227184,0
257,SOLAURE,45.40845096,4.383146242,0
2196,VAL DU RIO,45.40801705,4.414418511,0
2197,VAL DU RIO,45.40835839,4.41348589,0
262,LE BERNAY,45.40728557,4.423717446,0
263,IMP. LE BERNAY,45.40682774,4.419803576,0
264,IMP. LE BERNAY,45.40719169,4.420072787,0
2563,FLACHERE,45.40998395,4.207086047,0
2564,FLACHERE,45.40958202,4.206906388,0
2285,LAUMIERE,45.41243824,4.296373569,0
2286,LAUMIERE,45.41256123,4.296544018,0
269,PUITS VOISIN,45.41484902,4.302566369,0
270,PUITS VOISIN,45.41469005,4.30341679,0
271,PLACE PIGER,45.40951305,4.38068136,0
272,PLACE PIGER,45.40942044,4.380332983,0
273,HENRI BRISSON,45.40999772,4.384187195,0
274,HENRI BRISSON,45.41056681,4.385051489,0
275,JOMAYERE,45.41136387,4.383790537,0
276,JOMAYERE,45.41134284,4.383955856,0
277,BOSSUET,45.41146707,4.386503011,0
281,BOSSUET,45.41189999,4.386940675,0
278,DESAUGIER,45.4133632,4.386649882,0
315,DESAUGIER,45.41364933,4.386749918,0
279,EMMANUEL BRUN,45.40993446,4.378307748,0
280,EMMANUEL BRUN,45.40991052,4.378140773,0
282,HOPITAL BELLEVUE,45.41275066,4.391086374,0
283,HOPITAL BELLEVUE,45.41286227,4.390400556,0
284,HOPITAL BELLEVUE,45.41313876,4.392979011,0
285,HOPITAL BELLEVUE,45.41237906,4.390740385,0
287,HOPITAL BELLEVUE,45.41257056,4.391092468,0
289,P. LOUIS COURIER,45.40955116,4.386943126,0
290,P. LOUIS COURIER,45.40961481,4.386907155,0
291,DIGONNIERE,45.41146649,4.397772057,0
292,DIGONNIERE,45.41168208,4.39779286,0
293,ROBESPIERRE,45.41262722,4.396805888,0
332,ROBESPIERRE,45.41412309,4.39620991,0
334,ROBESPIERRE,45.41282484,4.396826019,0
294,LE RIVIERA,45.41288998,4.404009164,0
295,LE RIVIERA,45.4130838,4.403748082,0
2198,LES MOULINS,45.41031105,4.409138458,0
2201,LES MOULINS,45.41051766,4.409158969,0
2199,ALLEE DU BARRAGE,45.40925053,4.410516927,0
2200,ALLEE DU BARRAGE,45.40911279,4.410665082,0
2430,AUBERGE BERNAY,45.41182715,4.406486517,0
2431,AUBERGE BERNAY,45.41188915,4.406539942,0
301,ROUTE VALLEE,45.41094208,4.432211286,0
302,ROUTE VALLEE,45.41100479,4.432226437,0
303,RUE DU FAUBOURG,45.41164066,4.441475466,0
304,RUE DU FAUBOURG,45.41174617,4.441607247,0
305,LE CHATEAU,45.41049603,4.445379954,0
306,LE CHATEAU,45.41063141,4.445359557,0
2572,LA TOURETTE,45.41521281,4.082626987,0
2573,LA TOURETTE,45.41517544,4.082715243,0
2565,BOURG ABOEN,45.41468416,4.131275375,0
307,PONTIN,45.41556452,4.307408821,0
308,PONTIN,45.41611441,4.308373927,0
309,LOUIS BRAILLE,45.4181059,4.312291011,0
310,LOUIS BRAILLE,45.41866999,4.312451702,0
311,LA BERAUDIERE,45.41418885,4.375474763,0
312,LA BERAUDIERE,45.41402838,4.375392189,0
313,TOUR,45.41724744,4.375536299,0
314,TOUR,45.41731658,4.375692182,0
316,LA CHAUVETIERE,45.41649775,4.380607038,0
317,LA CHAUVETIERE,45.41674862,4.380667413,0
318,RUE DU VERCORS,45.41697895,4.385774321,0
319,RUE DU VERCORS,45.41718796,4.384683149,0
320,BUFFON,45.41664668,4.387205924,0
321,BUFFON,45.4166448,4.387308077,0
322,LYCEE H.D'URFE,45.41621856,4.39042285,0
323,LYCEE H.D'URFE,45.41638866,4.389981936,0
324,GARE BELLEVUE,45.41792636,4.392977961,0
325,BELLEVUE,45.4154157,4.393459696,0
326,BELLEVUE,45.41549763,4.39389718,0
327,BELLEVUE,45.41529192,4.393340098,0
328,BELLEVUE,45.41528679,4.394106564,0
329,BELLEVUE,45.41539687,4.394481207,0
330,BELLEVUE,45.41528684,4.394592115,0
335,BELLEVUE,45.41571553,4.393304726,0
336,BELLEVUE,45.41563648,4.393199567,0
331,SQUARE AMOUROUX,45.41395401,4.39805633,0
333,FORGES,45.41508121,4.397932195,0
337,RUE AMOUROUX,45.41426628,4.400150674,0
339,RUE AMOUROUX,45.4145011,4.401564947,0
338,PARMENTIER,45.41446249,4.400732972,0
340,AV. ROCHETAILLEE,45.41534099,4.40140461,0
343,AV. ROCHETAILLEE,45.41541434,4.400845128,0
341,THIMONNIER,45.41698621,4.4005204,0
342,THIMONNIER,45.41625637,4.401055417,0
344,BOUSSINGAULT,45.41666864,4.408916468,0
345,PORTAIL ROUGE,45.41616044,4.411082462,0
347,PORTAIL ROUGE,45.41669034,4.410655089,0
348,PORTAIL ROUGE,45.41603264,4.411179895,0
349,PORTAIL ROUGE,45.4157172,4.410720852,0
350,PORTAIL ROUGE,45.41588641,4.410816636,0
346,LYCEE J.MONNET,45.41698112,4.411956569,0
378,LYCEE J.MONNET,45.41768522,4.411356831,0
351,CLAUDINON,45.41750155,4.419285218,0
352,CLAUDINON,45.41754086,4.419107801,0
2566,COLL. FALABREGUE,45.42022171,4.067809732,0
353,LA VARENNE,45.42187517,4.314904627,0
354,LA VARENNE,45.42214429,4.314952581,0
355,COLL. GRUNER,45.42362106,4.314391959,0
356,COLL. GRUNER,45.42342134,4.314998223,0
402,COLL. GRUNER,45.42384662,4.315882412,0
403,COLL. GRUNER,45.42439922,4.316183318,0
357,E. MARTEL BAS,45.41917211,4.379044589,0
358,E. MARTEL BAS,45.4188285,4.379134138,0
359,E. MARTEL,45.42038548,4.378143733,0
360,E. MARTEL,45.42049269,4.378186023,0
361,LARIONOV,45.42146833,4.381915131,0
362,LARIONOV,45.42151657,4.381738008,0
363,COTONNE,45.42234259,4.383314809,0
364,COTONNE,45.42198661,4.383097181,0
365,CITE U,45.42259414,4.385790506,0
366,CITE U,45.42267273,4.385921209,0
367,BICENTENAIRE,45.41934227,4.392813324,0
368,BICENTENAIRE,45.41949421,4.392870083,0
372,PASSEMENTIERS,45.42239467,4.398089532,0
373,PASSEMENTIERS,45.42240521,4.396543633,0
2011,LES MARISTES,45.42073712,4.398181149,0
2012,LES MARISTES,45.4203483,4.398281678,0
2073,LES MOULINIERS,45.4187817,4.399782302,0
2074,LES MOULINIERS,45.41879541,4.399527244,0
375,SAINTE CHAPELLE,45.42092311,4.406123802,0
376,SAINTE CHAPELLE,45.42103812,4.406230334,0
377,PASSAGE FAURE,45.42228815,4.405791459,0
423,PASSAGE FAURE,45.42239063,4.4056036,0
379,IMPASSE DREVET,45.41850503,4.410825307,0
380,EMILE CLERMONT,45.4194577,4.407500223,0
381,EMILE CLERMONT,45.41891222,4.406342529,0
382,PARC DE L'EUROPE,45.41974437,4.411446788,0
383,PARC DE L'EUROPE,45.41990387,4.411580554,0
384,LE ROND POINT,45.42130707,4.410649166,0
385,LE ROND POINT,45.42170632,4.410472438,0
386,LA REJAILLERE,45.41758672,4.415199385,0
387,LA REJAILLERE,45.417653,4.415022978,0
388,C. C. METARE,45.41861394,4.418509246,0
389,C. C. METARE,45.41868869,4.418844298,0
391,RUE DE LA METARE,45.41984416,4.421545748,0
2075,RUE DE LA METARE,45.41988364,4.421841147,0
2077,RUE DE LA METARE,45.42033846,4.422062743,0
2078,RUE DE LA METARE,45.42022768,4.422211916,0
393,NICOLAS MIGNARD,45.42003787,4.425143896,0
2228,NICOLAS MIGNARD,45.4202007,4.425098924,0
395,LYC B.FOURNEYRON,45.41850168,4.422594133,0
396,LYC B.FOURNEYRON,45.41855683,4.422532319,0
2076,METARE,45.41880863,4.422541807,0
399,FACULTE SCIENCES,45.42179189,4.42567013,0
438,FACULTE SCIENCES,45.42256513,4.425226474,0
2079,FACULTE SCIENCES,45.42144662,4.426807225,0
2080,FACULTE SCIENCES,45.42157133,4.42687583,0
2567,BD DU HAUT FOREZ,45.42463522,4.063462509,0
2568,BD DU HAUT FOREZ,45.42463522,4.063462509,0
404,CL. CHATAIGNIERS,45.42819344,4.312817229,0
405,ROARE,45.42571391,4.317150475,0
406,ROARE,45.42591018,4.317246956,0
407,HAVEURS,45.42327388,4.376192783,0
2580,MONTMARTRE,45.42769149,4.376738985,0
408,PALERNE,45.42298765,4.382980839,0
409,PALERNE,45.42319562,4.383908643,0
410,JULES SIMON,45.42405655,4.389461276,0
411,JULES SIMON,45.42417793,4.389222964,0
412,EMILE REYMOND,45.42566375,4.388191766,0
413,EMILE REYMOND,45.4258164,4.388210204,0
414,CAMP. TREFILERIE,45.42668649,4.39081128,0
415,CAMP. TREFILERIE,45.42679675,4.39068757,0
416,CENTRE DEUX,45.42308585,4.391840581,0
417,CENTRE DEUX,45.4228977,4.391795257,0
418,VALBENOITE,45.42423359,4.395972693,0
419,VALBENOITE,45.42422518,4.397403705,0
420,ARSAC,45.42520129,4.399612634,0
428,ARSAC,45.42530757,4.400191693,0
421,BOUILLET,45.42577489,4.395352698,0
422,BOUILLET,45.42605941,4.396027846,0
424,F. VOYTIER,45.42376536,4.402805133,0
425,F. VOYTIER,45.42396793,4.402557102,0
426,MULATIERE,45.42437215,4.403083379,0
427,MULATIERE,45.4245655,4.402847782,0
429,MONTESQUIEU,45.42602733,4.402633971,0
430,MONTESQUIEU,45.42628836,4.402145287,0
431,CENTRE CONGRES,45.42643323,4.404527815,0
432,CENTRE CONGRES,45.42633336,4.405060852,0
499,CENTRE CONGRES,45.42741489,4.405459124,0
433,ECOLE DES MINES,45.42390782,4.407743395,0
434,ECOLE DES MINES,45.42387468,4.408074426,0
435,40 LE CORBUSIER,45.42563529,4.411156413,0
437,FRAISSINETTE,45.42269805,4.422931189,0
439,FRAISSINETTE,45.42284146,4.422962153,0
443,SEMBAT,45.42568367,4.420155419,0
2231,SEMBAT,45.42552179,4.420149325,0
440,L'ANGELUS,45.42521766,4.4219782,0
441,L'ANGELUS,45.42553957,4.421606925,0
445,IUT,45.42331141,4.430545392,0
446,IUT,45.42318767,4.430425694,0
447,LA FERME,45.42496085,4.431847452,0
448,LA FERME,45.42567813,4.431989626,0
449,TREYVES DE JANON,45.42564801,4.438378576,0
450,TREYVES DE JANON,45.42573962,4.438292593,0
451,LA GRANGE,45.42549406,4.434602586,0
452,LA GRANGE,45.42557428,4.434643967,0
453,MAURICE RAVEL,45.42961054,4.31511721,0
455,LANLYRE,45.43036615,4.320205407,0
2232,LANLYRE,45.43018175,4.320454413,0
456,GARE ROCHE,45.43235767,4.323088659,0
457,LE ROYAL,45.43317443,4.322197712,0
458,CIMETIERE ROCHE,45.43244929,4.330569004,0
2233,CIMETIERE ROCHE,45.43273062,4.329428816,0
2234,CIMETIERE ROCHE,45.43298015,4.329565616,0
460,PETITES SOEURS,45.43082237,4.380228614,0
461,PAILLON,45.43125219,4.378378425,0
462,TARDY,45.42727154,4.384928472,0
464,TARDY,45.42797634,4.38379153,0
463,PLACE BUISSON,45.42739559,4.386505048,0
465,MERLIN,45.42851798,4.382226767,0
468,MERLIN,45.42933799,4.382167609,0
469,BEL HORIZON,45.43024975,4.385447687,0
472,BEL HORIZON,45.43069276,4.385336276,0
470,MARTIN BERNARD,45.43064459,4.381091164,0
2506,GAYET,45.42849288,4.384577472,0
2507,GAYET,45.42875742,4.38438277,0
474,ST ROCH,45.42961145,4.393731642,0
475,ANATOLE FRANCE,45.43072324,4.389555182,0
476,ANATOLE FRANCE,45.42944864,4.389865768,0
477,CHARLES REBOUR,45.42723322,4.399228276,0
478,CHARLES REBOUR,45.42773866,4.39817355,0
479,RESID. GUINARD,45.42908392,4.399885165,0
494,RESID. GUINARD,45.42903947,4.400829288,0
481,LASSAIGNE,45.42982626,4.398673083,0
482,CONSERVATOIRE,45.42987227,4.396668182,0
483,CONSERVATOIRE,45.4299939,4.396417088,0
485,CONSERVATOIRE,45.43112977,4.395334611,0
486,BAULIER,45.42831066,4.394974137,0
487,EDMOND MAURAT,45.43013676,4.39550217,0
2215,EDMOND MAURAT,45.42978246,4.395195028,0
489,ESPACE FAURIEL,45.42743304,4.401076106,0
490,ESPACE FAURIEL,45.42763821,4.400687564,0
495,CH. PUITS GUERIN,45.43088048,4.402009921,0
496,CH. PUITS GUERIN,45.43089776,4.40204891,0
497,HORACE VERNET,45.4309747,4.403726128,0
498,HORACE VERNET,45.43102014,4.403702262,0
2235,LIOGIER,45.42834875,4.405085049,0
2236,LIOGIER,45.42846376,4.405191593,0
500,PIERRE BLACHON,45.42885517,4.407378958,0
501,PIERRE BLACHON,45.42892899,4.408250815,0
510,PIERRE BLACHON,45.42881539,4.408553302,0
502,BEAULIEU,45.42866814,4.409698058,0
503,BEAULIEU,45.42931744,4.411562832,0
504,BEAULIEU,45.42942185,4.410787108,0
505,HOVELACQUE,45.43036032,4.407742021,0
508,HOVELACQUE,45.43038612,4.407321209,0
506,CHAMPAGNAT,45.4302656,4.409451148,0
507,CHAMPAGNAT,45.4303702,4.409634002,0
509,R. DE TERRENOIRE,45.4318079,4.413624557,0
511,R. DE TERRENOIRE,45.43188928,4.414087746,0
2237,MARANDINIERE,45.42733796,4.417827741,0
2238,MARANDINIERE,45.42753819,4.417707465,0
512,C. C. MONTCHOVET,45.42823751,4.415433234,0
513,C. C. MONTCHOVET,45.42874311,4.414378637,0
514,C. C. MONTCHOVET,45.42908492,4.413420122,0
518,ENISE,45.42892985,4.422220317,0
519,ENISE,45.42880395,4.422215573,0
520,DECOUVERTE,45.43063948,4.423677903,0
521,DECOUVERTE,45.43058433,4.423739729,0
522,PARKING STADE,45.42589749,4.436598815,0
523,JANON,45.42852732,4.434576977,0
524,STADE JANON,45.42852732,4.434576977,0
525,STADE JANON,45.42782022,4.435329796,0
526,CARCARET,45.42709227,4.438625128,0
534,CARCARET,45.42718436,4.4385136,0
527,LA GAMOTIERE,45.42800741,4.440206354,0
531,LA GAMOTIERE,45.42809758,4.440197,0
528,JABOULAY,45.42903712,4.442392697,0
533,JABOULAY,45.42909228,4.442330891,0
529,PERROTIERE,45.43173843,4.444221,0
633,PERROTIERE,45.43165894,4.444141284,0
634,PERROTIERE,45.43145396,4.443558308,0
530,LES BRUYERES,45.43044186,4.441870987,0
532,LES BRUYERES,45.430383,4.441651466,0
535,ANC. COMBATTANTS,45.42955084,4.441875437,0
536,ANC. COMBATTANTS,45.42965024,4.441853656,0
537,(BOURG),45.42780569,4.58356337,0
538,LA PERTIERE,45.43669057,4.275745687,0
539,LA PERTIERE,45.4368077,4.275737009,0
540,LES RIPPES,45.436418,4.278484268,0
541,LES RIPPES,45.43638368,4.27890487,0
542,RELAIS DES ROSES,45.43574035,4.283292035,0
543,RELAIS DES ROSES,45.43579297,4.283370577,0
544,CHICHIVIEUX,45.43565918,4.287941779,0
545,CHICHIVIEUX,45.43569337,4.288045239,0
546,LORIOTS,45.43649879,4.297033883,0
547,LORIOTS,45.43680143,4.297223554,0
548,LE BERLAND,45.43416949,4.296440109,0
549,LE BERLAND,45.43407168,4.296372738,0
550,VALLON,45.43463549,4.291931903,0
551,VALLON,45.43450689,4.292080739,0
552,BIORANGE,45.4339695,4.303207239,0
553,BIORANGE,45.43410909,4.304988839,0
554,BOIS NEYRETTE,45.43313756,4.314642572,0
555,BOIS NEYRETTE,45.43329683,4.315811376,0
556,MAIRIE ROCHE,45.43324459,4.323312216,0
561,MAIRIE ROCHE,45.43256886,4.323863118,0
557,LES CEDRES,45.43365393,4.320029271,0
558,LES CEDRES,45.43367977,4.320094105,0
559,LES CHENES,45.436266,4.31888302,0
560,LES CHENES,45.43621967,4.318958053,0
563,VUNS,45.43647698,4.327761429,0
564,VUNS,45.43653026,4.327801692,0
566,COTE DURIEUX,45.43315961,4.336640237,0
567,COTE DURIEUX,45.43400506,4.335661037,0
568,DOURDEL,45.43497469,4.347813338,0
569,DOURDEL,45.43500882,4.347916834,0
570,LA FUTAIE,45.43769653,4.345585828,0
571,LA FUTAIE,45.43765363,4.345469228,0
572,MONTSALSON,45.43287405,4.353015754,0
573,MONTSALSON,45.43342101,4.350632738,0
574,MONTSALSON,45.43377934,4.349725497,0
575,CROIX DE MISSION,45.43208808,4.377450656,0
576,PIERRE SEMARD,45.4334924,4.379394142,0
577,RASPAIL,45.43203431,4.381372568,0
580,RASPAIL,45.43273671,4.381347393,0
581,RUE FRANKLIN,45.43271691,4.385372862,0
582,RUE FRANKLIN,45.43271386,4.38553891,0
584,PLACE DES PERES,45.43351018,4.385299975,0
2442,MEDIATHEQUE,45.43534602,4.380881386,0
586,STE-BARBE,45.43499096,4.384051016,0
2508,STE-BARBE,45.4351408,4.384222728,0
588,ABBE DE L'EPEE,45.43395201,4.385252421,0
589,BOIVIN,45.43621139,4.385221021,0
2509,R. DE LA COLLINE,45.43307744,4.383379486,0
2510,R. DE LA COLLINE,45.4330959,4.383354605,0
2511,MONTEE THEVENON,45.43143217,4.383293077,0
2512,MONTEE THEVENON,45.43141512,4.383241321,0
590,ST-ENNEMOND,45.43468795,4.382416486,0
591,ST-ENNEMOND,45.43494233,4.382285287,0
592,ST-ENNEMOND,45.43468585,4.382531447,0
593,LA CHARITE,45.43270421,4.392427841,0
594,CHAVANELLE,45.43462261,4.39283144,0
597,BOURSE TRAVAIL,45.4328203,4.388073613,0
2013,SAINT-LOUIS,45.43420507,4.388623442,0
598,ANDRE DELORME,45.43168244,4.400007603,0
599,ANDRE DELORME,45.43174563,4.399997178,0
603,RUE EMILE,45.43102079,4.396851526,0
2574,RUE EMILE,45.43045309,4.397379981,0
600,VILLEBOEUF-LE-HT,45.43277648,4.399243148,0
601,PLACE VILLEBOEUF,45.43388754,4.395117653,0
602,PLACE VILLEBOEUF,45.4341377,4.395216432,0
604,BOILEAU,45.43505211,4.405629594,0
605,BOILEAU,45.43499508,4.405793631,0
606,LA DAME BLANCHE,45.43222278,4.409217695,0
607,LA DAME BLANCHE,45.43277491,4.409046647,0
608,FENELON,45.43393766,4.407492443,0
609,FENELON,45.43403635,4.407508917,0
610,RUE DES VILLAS,45.43326056,4.415839208,0
611,RUE DES VILLAS,45.43326199,4.415762571,0
612,STE-MARGUERITE,45.43424911,4.417844791,0
613,STE-MARGUERITE,45.43479102,4.418223073,0
614,GAUTHIER DUMONT,45.43516968,4.418186187,0
2504,GAUTHIER DUMONT,45.43540093,4.417849762,0
616,LOUIS MAGNIEN,45.43552613,4.415476947,0
617,DOCTEUR ZAMENHOF,45.43389502,4.416080339,0
618,DOCTEUR ZAMENHOF,45.43445487,4.416944997,0
619,JEAN PAROT,45.43244222,4.423042894,0
620,JEAN PAROT,45.43274113,4.422939127,0
621,MONTPLAISIR,45.43452991,4.420641862,0
622,MONTPLAISIR,45.43462924,4.421105761,0
623,RUE A. FRANCE,45.43014091,4.433475054,0
624,LES FORGES,45.4315281,4.433885495,0
628,LES FORGES,45.43145016,4.434202079,0
625,TERRENOIRE,45.43431344,4.436994866,0
626,TERRENOIRE,45.43440636,4.437317948,0
629,TERRENOIRE,45.4342984,4.438272514,0
630,TERRENOIRE,45.43467495,4.437392055,0
2581,CIME. TERRENOIRE,45.4310693,4.429560772,0
631,LOUIS PERGAUD,45.43127973,4.442299086,0
632,COLONEL FABIEN,45.43365635,4.44130304,0
2081,COLONEL FABIEN,45.43347456,4.441398383,0
635,LA GILLIERE,45.43308429,4.451097818,0
636,LA GILLIERE,45.43333295,4.451273485,0
637,LA PINEDE,45.43520053,4.454348729,0
638,LA PINEDE,45.43464397,4.454749248,0
639,LE MOULIN ROUE,45.43517601,4.575975514,0
640,VICTOR HUGO,45.43939211,4.320209373,0
641,VICTOR HUGO,45.43940873,4.320286666,0
642,RUE LAMARTINE,45.44122847,4.320684266,0
643,RUE LAMARTINE,45.44133821,4.320585934,0
644,LES PRUNIERS,45.43806019,4.320212762,0
645,SAINT EXUPERY,45.43907757,4.32271631,0
646,DERHINS,45.43770928,4.324763532,0
648,DERHINS,45.43730743,4.32509422,0
647,LAENNEC,45.43434501,4.327211799,0
649,GOUTTENOIRE,45.43989805,4.342763993,0
650,GOUTTENOIRE,45.43940116,4.343372345,0
651,LES BARAUDES,45.43755231,4.360050471,0
652,LES BARAUDES,45.43773839,4.360210667,0
653,MICHON,45.43825197,4.366620839,0
654,MICHON,45.43835305,4.366010972,0
655,MICHON,45.43866084,4.366405746,0
656,RUE KLEBER,45.44020245,4.365759216,0
657,RUE KLEBER,45.44043558,4.365806115,0
2575,F. D'ESPEREY,45.44088909,4.371051161,0
2576,F. D'ESPEREY,45.44100282,4.370735757,0
658,LE CLAPIER,45.43734964,4.379089136,0
663,LE CLAPIER,45.43743023,4.378619152,0
659,MUSEE DE LA MINE,45.439282,4.37725578,0
660,MUSEE DE LA MINE,45.43947996,4.376764538,0
661,STE - ENFANCE,45.44063702,4.375989061,0
777,STE - ENFANCE,45.44145491,4.375060437,0
662,LA PAREILLE,45.43850461,4.37941299,0
664,GEORGES TEISSIER,45.43771052,4.387385673,0
665,PALAIS JUSTICE,45.43701427,4.384624396,0
666,TARENTAIZE,45.43757956,4.381769207,0
670,TARENTAIZE,45.43693449,4.382103279,0
667,MI-CAREME,45.43809572,4.38552087,0
671,ARISTIDE BRIAND,45.43922503,4.382827102,0
672,ARCOLE,45.4403629,4.384083597,0
2082,DORIAN/H. VILLE,45.43845225,4.38766882,0
2083,DORIAN/H. VILLE,45.43852467,4.387645938,0
2084,DORIAN/H. VILLE,45.43956482,4.387850673,0
674,PEUPLE FOY,45.43677578,4.387811205,0
675,HOTEL DE VILLE,45.43868201,4.387408893,0
676,HOTEL DE VILLE,45.43868201,4.387408893,0
677,JEU DE L'ARC,45.43863007,4.39170205,0
678,MARCELLIN ALLARD,45.43654237,4.392672687,0
680,JEAN MOULIN,45.43698996,4.393290099,0
681,JEAN MOULIN,45.43672234,4.393650847,0
682,JEAN MOULIN,45.43727939,4.393211377,0
683,JEAN MOULIN,45.43756411,4.393388134,0
690,JEAN MOULIN,45.43752596,4.393016017,0
693,JEAN MOULIN,45.43758539,4.393209967,0
689,SQUARE VIOLETTE,45.4370528,4.390365213,0
2086,SQUARE VIOLETTE,45.43687136,4.390933696,0
2087,SQUARE VIOLETTE,45.43685954,4.391086648,0
2088,SQUARE VIOLETTE,45.43668703,4.391169721,0
687,REPUBLIQUE,45.43914161,4.39275648,0
688,PEUPLE GAMBETTA,45.43581617,4.388120759,0
691,GRAND MOULIN,45.43719179,4.389168802,0
692,PEUPLE LIBERAT.,45.43671009,4.388447896,0
694,GASPARD MONGE,45.43967135,4.400139316,0
695,FRERES CHAPPE,45.44009814,4.394568906,0
696,LYCEE FAURIEL,45.43689895,4.394322108,0
697,CHANTEGRILLET,45.4386386,4.39661104,0
698,FOURNEYRON,45.43928154,4.395906335,0
700,FOURNEYRON,45.43949419,4.397550499,0
701,FOURNEYRON,45.43957619,4.396032349,0
702,FOURNEYRON,45.43965336,4.396239753,0
703,MOLIERE,45.43599685,4.406610817,0
704,MOLIERE,45.43603992,4.406714688,0
705,PAUL PETIT,45.43721541,4.404470553,0
706,PAUL PETIT,45.43739456,4.404029851,0
707,RICHELANDIERE,45.43766199,4.405139165,0
708,RICHELANDIERE,45.43800325,4.404205987,0
709,CONTE GRANDCHAMP,45.43822094,4.402168849,0
711,SEGUIN,45.4385234,4.402359101,0
712,ISERABLE,45.43862519,4.405124038,0
713,ISERABLE,45.43838404,4.405511296,0
714,LA PLAGNE,45.43907791,4.403517501,0
715,BD 38EME R.I.,45.43943101,4.406317435,0
716,BD 38EME R.I.,45.43940971,4.406495603,0
717,ST-FRANCOIS,45.43961299,4.403294606,0
718,RUE DE LA CHANCE,45.44036346,4.405048399,0
803,RUE DE LA CHANCE,45.44060059,4.404878294,0
719,DOCTEUR CALMETTE,45.43599468,4.413027531,0
728,DOCTEUR CALMETTE,45.43586969,4.413457444,0
720,CRECHE LA SOURCE,45.43645651,4.411421472,0
721,CRECHE LA SOURCE,45.4366009,4.410915581,0
722,NORMANDIE NIEMEN,45.43712834,4.412073015,0
723,NORMANDIE NIEMEN,45.43720358,4.412382623,0
724,ROBINSON,45.43771823,4.409385172,0
2505,ROBINSON,45.43777407,4.40977075,0
726,ESPE,45.43688476,4.408229079,0
727,ESPE,45.43691954,4.408294295,0
729,ALBERT CAMUS,45.43609542,4.418732309,0
730,ALBERT CAMUS,45.43620995,4.418864444,0
731,PAUL RONIN,45.43590903,4.415695851,0
732,PAUL RONIN,45.43607518,4.415472008,0
2015,LOUIS DESTRE,45.43897388,4.420732529,0
2016,LOUIS DESTRE,45.43924136,4.420384671,0
737,CINQ CHEMINS,45.43983065,4.427373819,0
2019,CINQ CHEMINS,45.43976263,4.426680945,0
738,PLACE VIAL,45.43617474,4.437078294,0
739,PLACE VIAL,45.43640928,4.437048849,0
740,THOMAS EDISON,45.43819651,4.436285787,0
741,THOMAS EDISON,45.43823883,4.436428007,0
742,MAUGARA,45.43785605,4.441462773,0
743,MAUGARA,45.43788038,4.441604312,0
744,HAUTS TERRENOIRE,45.43863523,4.442617333,0
745,LES CHATAIGNIERS,45.43908389,4.439822081,0
746,LES CHATAIGNIERS,45.43926736,4.439637304,0
2239,MASSARDIERE,45.43707076,4.44825895,0
2241,MASSARDIERE,45.43714837,4.448913839,0
2240,LES MARANDES,45.43805917,4.449766725,0
751,MACHIZAUD,45.43757456,4.457763169,0
752,MACHIZAUD,45.43770605,4.457947173,0
753,LES ECHALLIERES,45.43838614,4.462409025,0
754,LES ECHALLIERES,45.4384836,4.462489469,0
755,OCHARRA,45.43941511,4.466027931,0
756,OCHARRA,45.43977383,4.466565862,0
757,ST JUST (BOURG),45.43719611,4.578907983,0
758,ST-VICTOR-SUR-L,45.44361088,4.261171971,0
759,POMMEROL,45.44598576,4.301013537,0
760,POMMEROL,45.44618137,4.301148325,0
2242,ST-GENEST-LERPT,45.44574942,4.336635077,0
2244,ST-GENEST-LERPT,45.44612942,4.336520968,0
762,LE TISSOT,45.4417907,4.339598383,0
763,LE TISSOT,45.44196409,4.33946404,0
764,CROIX D. RAMEAUX,45.44431848,4.337644433,0
765,ROCHE DU GEAI,45.44177313,4.364998663,0
766,ROCHE DU GEAI,45.44229845,4.36481338,0
767,COTE CHAUDE,45.44459831,4.363542551,0
768,COTE CHAUDE,45.44477771,4.363574692,0
769,PETIT COIN,45.44258364,4.372877632,0
770,PETIT COIN,45.44276336,4.372398459,0
771,GRAND COIN,45.44382451,4.369970169,0
772,GRAND COIN,45.44388196,4.369780518,0
775,GRAND COIN,45.44350138,4.370418519,0
773,PETRUS MAUSSIER,45.44482638,4.374251387,0
774,PETRUS MAUSSIER,45.44482171,4.374506902,0
776,P. DE BESSET,45.44326227,4.374155436,0
2089,PUITS DE LOIRE,45.44372659,4.376818843,0
2090,PUITS DE LOIRE,45.44419879,4.377079154,0
781,BUISSON,45.4415923,4.379360792,0
782,JULES VERNE,45.44278442,4.378637768,0
783,JACQUARD,45.44114862,4.382949368,0
785,BALAY,45.44454982,4.386411865,0
786,PL. JEAN JAURES,45.44195089,4.386801372,0
788,PL. JEAN JAURES,45.44154354,4.386441121,0
789,PL. JEAN JAURES,45.44156911,4.38651877,0
787,ELISEE RECLUS,45.44115204,4.382271967,0
790,GRAND GONNET,45.44445409,4.385743535,0
791,GRAND GONNET,45.44440107,4.385690434,0
792,PAINLEVE,45.44075326,4.392714098,0
793,PAINLEVE ROYET,45.4408041,4.3923964,0
794,CRET DE ROC,45.44363028,4.390417587,0
2443,ASCENSEUR ROYET,45.44200659,4.39062578,0
804,CHATEAUCREUX,45.44279197,4.400741485,0
805,CHATEAUCREUX,45.44278608,4.401546657,0
806,CHATEAUCREUX,45.44259767,4.400542478,0
807,CHATEAUCREUX,45.44257378,4.400861185,0
2092,CHATEAUCREUX,45.44284439,4.398391185,0
2093,CHATEAUCREUX,45.44054207,4.401232815,0
2094,CHATEAUCREUX,45.44079649,4.401587463,0
2243,CHATEAUCREUX,45.44278388,4.399718465,0
2449,CHATEAUCREUX,45.44281489,4.399988085,0
2450,CHATEAUCREUX,45.44287667,4.400054308,0
809,DALGABIO,45.4411046,4.400985348,0
810,DALGABIO,45.44117205,4.401230754,0
811,BEAUMARCHAIS,45.44037074,4.408538555,0
812,BEAUMARCHAIS,45.44067933,4.408882482,0
813,RUE DES ALLIES,45.44111029,4.413296196,0
820,RUE DES ALLIES,45.44136372,4.413702002,0
821,RUE DES ALLIES,45.44137692,4.414443953,0
815,PONT BLANC,45.44199709,4.407704584,0
2095,PONT BLANC,45.44194596,4.40803505,0
816,CUSSINEL,45.44297524,4.412215622,0
817,CUSSINEL,45.44305523,4.412269759,0
2096,RD PT PINAY,45.44373984,4.418035579,0
2097,RD PT PINAY,45.44396567,4.417507132,0
818,MONTHIEU,45.44115705,4.417069135,0
819,MONTHIEU,45.44119796,4.417287996,0
822,LA COTE,45.44434685,4.426010336,0
823,LA COTE,45.4443767,4.425858049,0
825,LES CHALEYERES,45.44113092,4.432421388,0
826,LES CHALEYERES,45.44137181,4.432532783,0
827,SERVANTON,45.44436585,4.430281067,0
906,SERVANTON,45.44457342,4.431209408,0
828,PUITS LACHAUD,45.44020771,4.436055297,0
829,PUITS LACHAUD,45.43973695,4.436203621,0
830,COLL. A.BRIAND,45.44140212,4.435231315,0
831,LE POYET,45.44814919,4.469560473,0
975,LE POYET,45.44838927,4.470183436,0
832,LES VIAURES,45.4415422,4.471044413,0
833,LES VIAURES,45.4414292,4.47083551,0
834,LA CHABURE,45.442511,4.475441211,0
835,LA CHABURE,45.44248745,4.475261321,0
836,BARRAGE,45.44210143,4.580679285,0
2020,LE BREUIL,45.44016402,4.575870566,0
837,RUE DE L'ISERON,45.44712606,4.272301639,0
838,RUE DE L'ISERON,45.44722388,4.272368983,0
839,PETIT BOIS,45.44748447,4.276021697,0
840,PETIT BOIS,45.44739397,4.275532713,0
841,GRANDES COTES,45.44792237,4.278785749,0
842,GRANDES COTES,45.44805616,4.278854369,0
843,JARDINS,45.44903868,4.277725431,0
844,JARDINS,45.44907121,4.277406949,0
845,RTE DE CONDAMINE,45.44844032,4.279532663,0
846,RTE DE CONDAMINE,45.44855024,4.27942146,0
847,LE MONT,45.45123608,4.287442756,0
848,LE MONT,45.45127525,4.287776559,0
850,LA VERCHERE,45.44812914,4.334905636,0
851,LA VERCHERE,45.44839086,4.334863949,0
852,GYMNASE,45.45028775,4.333462133,0
853,GYMNASE,45.45087437,4.333368236,0
2582,CIME.COTE CHAUDE,45.44684129,4.357961073,0
857,QUART. GAILLARD,45.4468926,4.362578248,0
2245,QUART. GAILLARD,45.44656426,4.362323316,0
855,BENOIT FRACHON,45.44605652,4.367981087,0
856,BENOIT FRACHON,45.44619769,4.367641085,0
858,HAUTS JACQUARD,45.44708399,4.368389571,0
859,HAUTS JACQUARD,45.44713656,4.36846821,0
860,PUITS GARENNE,45.44736554,4.366763442,0
861,PUITS GARENNE,45.44765426,4.366722895,0
862,CHAVASSIEUX,45.44958409,4.365016535,0
863,CHAVASSIEUX,45.44973007,4.364906818,0
864,CHAVASSIEUX,45.45013407,4.364959985,0
865,CRECHE GARDERIE,45.44597872,4.372746886,0
866,CRECHE GARDERIE,45.44627745,4.372156999,0
867,PARC MONTAUD,45.44672899,4.370588299,0
868,PARC MONTAUD,45.44671604,4.370805164,0
869,LES TILLEULS,45.44584406,4.380118641,0
870,LES TILLEULS,45.44619807,4.379952729,0
871,LYCEE B.CHARVET,45.44666584,4.37750254,0
879,LYCEE B.CHARVET,45.4467546,4.377569738,0
872,CRET DE MONTAUD,45.44691611,4.376118223,0
873,ANDRE RUEL,45.4470328,4.379088615,0
874,ANDRE RUEL,45.44764259,4.37871479,0
875,EGLISE MONTAUD,45.4479168,4.380450898,0
881,EGLISE MONTAUD,45.44755796,4.382355393,0
876,RUE DE LAHARPE,45.44819362,4.378108656,0
877,RUE DE LAHARPE,45.44873076,4.377770489,0
878,LA VISITATION,45.45021847,4.380075643,0
938,LA VISITATION,45.45004609,4.379660138,0
883,PLACE CARNOT,45.44836499,4.384967845,0
884,PLACE CARNOT,45.44760981,4.384927102,0
2451,PLACE CARNOT,45.44761098,4.38486322,0
2452,PLACE CARNOT,45.4478559,4.384757221,0
880,GARE CARNOT,45.44701558,4.386413721,0
882,AUGUSTIN THIERRY,45.446855,4.384374979,0
887,PARC EXPOSITIONS,45.44855419,4.394256959,0
899,PARC EXPOSITIONS,45.44863325,4.394362182,0
888,LAVOISIER,45.44654542,4.388493011,0
2098,LAVOISIER,45.44641231,4.389370224,0
891,RUE CARON,45.4453183,4.388179029,0
892,AMPERE,45.44871784,4.38927677,0
893,MOUGIN COGNET,45.44828218,4.389477955,0
895,COLL. J.VALLES,45.44632363,4.400528049,0
896,PATINOIRE,45.44710062,4.396951669,0
897,PATINOIRE,45.44766546,4.396090531,0
2099,DOCTEURS MULLER,45.44744195,4.397961614,0
2100,DOCTEURS MULLER,45.44735889,4.398073585,0
898,TIBLIER VERNE,45.44766495,4.399043871,0
900,JULES JANIN,45.44607972,4.397655168,0
901,LOUIS SOULIE,45.44620091,4.397915377,0
2453,COLONEL MAREY,45.445514,4.400024817,0
2454,COLONEL MAREY,45.44543521,4.400392632,0
902,PLACE DUMAY,45.4484522,4.401732559,0
903,PLACE DUMAY,45.4489629,4.401368059,0
2455,BARDOT,45.44662452,4.40469436,0
2456,BARDOT,45.44666239,4.405079323,0
904,PONT DE L'ANE,45.4447536,4.420617835,0
905,PONT DE L'ANE,45.44489207,4.420431282,0
2291,MARC CHARRAS,45.44129753,4.423044418,0
2292,MARC CHARRAS,45.44134218,4.423544668,0
2293,MONTHIEU MONTAT,45.44232351,4.421114372,0
2294,MONTHIEU MONTAT,45.4424818,4.421312096,0
907,PAUL ROLLAT,45.44694883,4.428831815,0
908,PAUL ROLLAT,45.44694716,4.428921248,0
911,GRAND CIMETIERE,45.44706945,4.439179541,0
912,GRAND CIMETIERE,45.44707869,4.439167107,0
913,LA BARAILLERE,45.4472689,4.435274854,0
914,LA BARAILLERE,45.44733102,4.434842514,0
915,LA PLANCHE,45.45311988,4.475992027,0
916,LA PLANCHE,45.45284355,4.475853474,0
917,LA BROCHARIE,45.44946739,4.481553286,0
918,LA BROCHARIE,45.44965158,4.481803359,0
919,CENTRE EQUESTRE,45.45128931,4.490229122,0
920,CENTRE EQUESTRE,45.45109714,4.489927556,0
921,BONZIEUX,45.446147,4.492279147,0
922,PLACE DU DORLAY,45.44716705,4.583429132,0
923,PLACE DU DORLAY,45.44713801,4.583530239,0
924,CLINIQ ST-VICTOR,45.45436728,4.266750097,0
925,CLINIQ ST-VICTOR,45.45447542,4.266741084,0
926,CONDAMINE,45.45565728,4.262396581,0
927,RUE DU BREAT,45.45065485,4.270673515,0
928,RUE DU BREAT,45.45039514,4.27060051,0
929,CROIX DES SAGNES,45.45323779,4.294417751,0
930,CROIX DES SAGNES,45.45336686,4.294754755,0
931,LE MINOIS,45.45148287,4.334566483,0
932,LE MINOIS,45.45153409,4.334721762,0
933,COLCOMBET,45.45355822,4.331738966,0
934,MAISONS ROUGES,45.45146923,4.359817887,0
935,MAISONS ROUGES,45.45128913,4.359824087,0
936,GRAND CHARLIEU,45.45373752,4.357305213,0
937,GRAND CHARLIEU,45.45368309,4.357328798,0
939,PLANTEVIN,45.45144634,4.379366628,0
940,PLANTEVIN,45.45186715,4.379484453,0
941,J.F. REVOLLIER,45.45363098,4.379485653,0
942,J.F. REVOLLIER,45.45363098,4.379485653,0
2457,CITE DU DESIGN,45.45036317,4.383967829,0
2458,CITE DU DESIGN,45.45005435,4.384122614,0
945,CHALEASSIERE,45.45345451,4.383225544,0
946,CHALEASSIERE,45.45441458,4.38289025,0
947,E. TECHN. MARAIS,45.45115128,4.390057493,0
948,E. TECHN. MARAIS,45.4516348,4.390190514,0
949,RUE DES ACIERIES,45.45467695,4.391147363,0
950,RUE DES ACIERIES,45.45408881,4.39083143,0
954,SCHEURER KESTNER,45.4538198,4.399567418,0
1004,SCHEURER KESTNER,45.4541968,4.399619836,0
2104,A.F.P.A.,45.45216525,4.398521188,0
2105,A.F.P.A.,45.45215201,4.398750845,0
959,SOLEIL,45.45004472,4.403697068,0
960,SOLEIL,45.45012495,4.403738423,0
2459,SOLEIL,45.44921498,4.402822226,0
2460,SOLEIL,45.44996163,4.40235147,0
2583,SOLEIL,45.4506927,4.403695707,0
958,JEU DE PAUME,45.45126802,4.406645189,0
961,JEU DE PAUME,45.4515856,4.407475379,0
962,MARCHE DE GROS,45.45300787,4.409395431,0
963,MARCHE DE GROS,45.45359283,4.410849439,0
964,CRET FOND PERDU,45.45146051,4.42771104,0
967,MAIRIE ST-JEAN B,45.44885778,4.4445663,0
968,MAIRIE ST-JEAN B,45.4490243,4.444802786,0
969,PLACE ST CHARLES,45.45077052,4.445738778,0
970,PLACE ST CHARLES,45.45074843,4.445955298,0
971,PACOTIERE,45.45297204,4.447344308,0
972,PACOTIERE,45.45298592,4.447562209,0
973,LES AUBEPINES,45.45220574,4.452646992,0
974,LES AUBEPINES,45.45245221,4.452937721,0
976,LES BARRAQUES,45.45627155,4.480589521,0
1014,LES BARRAQUES,45.45623141,4.480805352,0
977,BOIS JARRET,45.45285078,4.485788992,0
978,BOIS JARRET,45.45297766,4.485742774,0
979,L'HERMITAGE,45.44570864,4.5079366,0
980,L'HERMITAGE,45.44564917,4.507755274,0
981,LA LANDE,45.44896393,4.503435873,0
982,LA LANDE,45.44894743,4.503358511,0
983,MOULIN COMBAT,45.45003923,4.504603166,0
984,MOULIN COMBAT,45.45005895,4.504514436,0
985,SOULAGE,45.45151671,4.504060103,0
986,SOULAGE,45.45202848,4.503658197,0
987,SOIE D'IZIEUX,45.45416325,4.50541693,0
988,SOIE D'IZIEUX,45.45374834,4.505464598,0
989,LA GAIZE,45.4534446,4.580960414,0
990,LA GAIZE,45.45356201,4.580492048,0
991,THEY,45.45093586,4.608887173,0
992,LA MURE,45.45624025,4.334239614,0
993,LA MURE,45.45644687,4.334259862,0
996,MONTAIGNE,45.45559581,4.376860184,0
997,MONTAIGNE,45.45579156,4.376982486,0
2106,CAUSSIDIERE,45.45763947,4.376321767,0
2107,CAUSSIDIERE,45.45754673,4.376471795,0
998,RUE BARRA,45.45527384,4.382653511,0
999,RUE BARRA,45.45609667,4.382440991,0
2461,ZENITH-COMEDIE,45.45442881,4.394360383,0
2462,ZENITH-COMEDIE,45.45475826,4.394551651,0
1000,PRODUCTIQUE,45.45674549,4.392196013,0
1001,PRODUCTIQUE,45.45753135,4.393503952,0
1005,NECKER,45.45843954,4.406210236,0
1006,NECKER,45.45825589,4.406407967,0
1007,MEONS,45.45638089,4.414815709,0
1008,MEONS,45.4568305,4.415318517,0
1009,RENE COTY,45.45745327,4.418602719,0
1010,RENE COTY,45.45742248,4.418806159,0
1012,REVEUX,45.45765646,4.421219018,0
2436,REVEUX,45.45761612,4.421933598,0
1015,RTE DE FOUAY,45.45645612,4.495302333,0
1016,RTE DE FOUAY,45.45655628,4.495242303,0
1017,BUJARRET,45.45749732,4.490317363,0
1018,BUJARRET,45.4575705,4.490256273,0
1019,J. CHIRAT,45.45920505,4.499744814,0
1020,J. CHIRAT,45.45890878,4.499707652,0
1021,PISCINE COUDERC,45.45539158,4.50240891,0
1030,PISCINE COUDERC,45.45574735,4.504481616,0
1031,PISCINE COUDERC,45.45580831,4.504586304,0
1022,AMICALE JOANNON,45.45530142,4.506126494,0
1023,AMICALE JOANNON,45.45537963,4.506270222,0
1024,BD P. JOANNON,45.45715534,4.507516346,0
1027,BD P. JOANNON,45.45722927,4.507416945,0
1025,PL. LOUIS COMTE,45.45754038,4.504372856,0
1026,PL. LOUIS COMTE,45.45767527,4.504378142,0
1028,GAYOTTI,45.45821521,4.505307251,0
1029,GAYOTTI,45.45811878,4.50517559,0
1032,COLL. P.JOANNON,45.45855305,4.511075143,0
1033,COLL. P.JOANNON,45.45851459,4.511201512,0
1034,RESIDENCE,45.46219842,4.32612968,0
2570,RESIDENCE,45.4616184,4.326863313,0
1036,TREMOLIN,45.45985713,4.330252605,0
2444,TREMOLIN,45.45955054,4.330791421,0
1037,PUITS GALLOIS,45.45984653,4.35589154,0
1038,PUITS GALLOIS,45.45986059,4.356109445,0
1039,CHEMIN CHENES,45.46298384,4.359561267,0
1040,CHEMIN CHENES,45.46275924,4.359540265,0
1041,BEL AIR,45.45947323,4.374957157,0
2463,ROGER ROCHER,45.45955977,4.381546048,0
2464,ROGER ROCHER,45.45952544,4.381455264,0
2465,G. GUICHARD,45.45912571,4.389509527,0
2466,G. GUICHARD,45.45921017,4.389320845,0
1044,QUARTIER GROUCHY,45.46298328,4.380355392,0
1045,QUARTIER GROUCHY,45.46282666,4.380554222,0
2468,TECHNOPOLE,45.45905584,4.395261405,0
2469,TECHNOPOLE,45.45918363,4.395163859,0
2470,TECHNOPOLE,45.459134,4.395903701,0
2471,TECHNOPOLE,45.45916569,4.395649126,0
2472,LE BESSARD,45.46213875,4.397422295,0
2473,LE BESSARD,45.46219578,4.39725817,0
1050,POMPIDOU,45.46226671,4.409959797,0
1142,POMPIDOU,45.46360215,4.410738819,0
1051,PARC DE MEONS,45.46048349,4.409547678,0
1052,PARC DE MEONS,45.46053391,4.409255441,0
1053,Z.I  MOLINA,45.45882509,4.424178674,0
1054,Z.I  MOLINA,45.45937493,4.425094579,0
1055,BAS CHANEY,45.46013088,4.426056653,0
1056,BAS CHANEY,45.4603935,4.426450218,0
1059,CHANEY,45.4612967,4.432520463,0
1060,CHANEY,45.46140989,4.432243406,0
1061,CROIX MI CAREME,45.45970621,4.440529461,0
1062,CRET BEAUPLOMB,45.46175931,4.445237011,0
1063,CRET BEAUPLOMB,45.46162393,4.445257428,0
2247,CRET BEAUPLOMB,45.46163486,4.445155536,0
1064,CROIX MI-CAREME,45.45968703,4.440592672,0
2021,NANTAS,45.45550278,4.444384748,0
2022,NANTAS,45.45548745,4.444243505,0
2111,GREEN PARK,45.45804555,4.452691354,0
2112,GREEN PARK,45.45793666,4.45273834,0
2113,METROTECH,45.45703618,4.457985138,0
1069,PONT NANTIN,45.46171603,4.487156553,0
1070,PONT NANTIN,45.46186017,4.487149368,0
2249,ZAC VARIZELLE,45.45994731,4.489274593,0
1072,C. C. VARIZELLE,45.4620437,4.493499765,0
1073,STADE PACHOA,45.45996923,4.503035741,0
1074,STADE PACHOA,45.45944081,4.502439572,0
1075,LA BOISSONNAT,45.46285324,4.500501365,0
1076,LA BOISSONNAT,45.46284672,4.500373219,0
1077,HONGROIS,45.45964184,4.505529433,0
1078,HONGROIS,45.45996862,4.505849168,0
1079,CENTRE DE SOINS,45.45985446,4.508018719,0
1080,CENTRE DE SOINS,45.4602961,4.507984903,0
1081,GALLIENI,45.46226147,4.50363708,0
1082,GALLIENI,45.46193221,4.503445136,0
1083,PONT NOIR,45.4635659,4.507371492,0
1165,PONT NOIR,45.46335429,4.50714577,0
1084,HAUTE GARENNE,45.46183235,4.510436729,0
1085,HAUTE GARENNE,45.46182087,4.510564167,0
1086,ST M COAILLEUX,45.46192518,4.519520507,0
1087,LE CHASSEUR,45.46310353,4.32432071,0
1088,CIZERON,45.4646601,4.321806114,0
1089,MERLEY,45.46649581,4.344470492,0
1096,MERLEY,45.46644277,4.344417409,0
1090,TORREDEMBARRA,45.46490212,4.344016185,0
1095,TORREDEMBARRA,45.46496462,4.344044031,0
1091,ROCHEFOY,45.46387607,4.345526372,0
1094,ROCHEFOY,45.46401694,4.345198983,0
1092,BOURGEAT,45.46505544,4.347500332,0
1093,BOURGEAT,45.46504967,4.347321077,0
1097,COMPLEXE SPORTIF,45.46606601,4.352345795,0
1098,LES MARRONNIERS,45.46657605,4.354998976,0
1099,LES MARRONNIERS,45.46630996,4.354285858,0
1100,MUSEE DE VILLARS,45.46510432,4.356761303,0
1101,MUSEE DE VILLARS,45.46547143,4.356864235,0
1102,JEAN RAVON,45.46654195,4.362351581,0
1103,JEAN RAVON,45.46649861,4.362260468,0
1104,CYCLOTOURISTES,45.46708785,4.361527472,0
1105,CYCLOTOURISTES,45.46621615,4.361955971,0
1106,LA TAILLEE,45.46592864,4.363914977,0
1107,LA TAILLEE,45.46609998,4.363895679,0
1108,JEAN GUITTON,45.46686666,4.366277031,0
1109,JEAN GUITTON,45.46683829,4.366352726,0
1110,LA GOUTTE,45.46795159,4.3664959,0
1203,LA GOUTTE,45.46835473,4.366101423,0
1111,PONT BOIS MONZIL,45.46588932,4.370039556,0
1112,PONT BOIS MONZIL,45.46599359,4.369749237,0
1113,PORTE DE VILLARS,45.4658778,4.376101218,0
1117,PORTE DE VILLARS,45.46597147,4.375900044,0
1118,TERRASSE,45.466087,4.378935362,0
1119,TERRASSE,45.46578929,4.378975526,0
1120,TERRASSE,45.46574351,4.378526213,0
1121,TERRASSE,45.46576243,4.378475755,0
2114,TERRASSE,45.46609599,4.378935694,0
2115,TERRASSE,45.46604017,4.379035947,0
2116,TERRASSE,45.46598551,4.379072296,0
2117,TERRASSE,45.46604017,4.379035947,0
1124,RUE DE LA TOUR,45.46650545,4.387532499,0
2474,RUE DE LA TOUR,45.46663893,4.386143399,0
1125,P. DE COUBERTIN,45.46667075,4.391759151,0
1126,P. DE COUBERTIN,45.46672559,4.391224031,0
1129,CLOS FOUGEOLS,45.46576696,4.401240796,0
1130,CLOS FOUGEOLS,45.46592787,4.400811965,0
1133,PERE VOLPETTE,45.46668874,4.396645404,0
1134,PERE VOLPETTE,45.46732222,4.395965568,0
2475,LES GRANGES,45.46636485,4.398104124,0
2476,LES GRANGES,45.46621601,4.398367154,0
1140,LA BATIE,45.46331664,4.40526731,0
1141,LA BATIE,45.46335735,4.405013057,0
1143,COLL. M.SEGUIN,45.46451456,4.408611685,0
1144,COLL. M.SEGUIN,45.4654522,4.409004909,0
1145,LE CAMP,45.46560853,4.411248895,0
1146,LE CAMP,45.46601156,4.411353539,0
1147,LA GIRARDIERE,45.46689133,4.409046043,0
1228,LA GIRARDIERE,45.46719283,4.409287555,0
1152,RENE CASSIN,45.46577707,4.428751098,0
1153,RENE CASSIN,45.4662192,4.429650299,0
1155,PLACE MARQUISE,45.4674978,4.445404635,0
1156,PLACE MARQUISE,45.46754108,4.445495814,0
1157,VARIZELLE,45.46360272,4.490593466,0
1158,VARIZELLE,45.46375412,4.490676097,0
1161,RIVAUD,45.46325104,4.494825758,0
1162,RIVAUD,45.46329773,4.494738056,0
2119,IZIEUX,45.46552195,4.501181311,0
2120,IZIEUX,45.46561411,4.501069811,0
1166,E. BRANLY,45.46193661,4.508778271,0
1167,E. BRANLY,45.46219691,4.508814071,0
1170,BIEF,45.46545945,4.508110875,0
1171,BIEF,45.46534603,4.507927366,0
2432,PLACE N. IZIEUX,45.46449533,4.503072341,0
2433,PLACE N. IZIEUX,45.46422339,4.503637212,0
2571,PLACE N. IZIEUX,45.46423288,4.503612005,0
1172,MJC,45.4637129,4.515536842,0
1173,MJC,45.46377585,4.515539322,0
1174,H. DUNANT HAUT,45.46417944,4.513764701,0
1175,H. DUNANT HAUT,45.46420468,4.51385522,0
1176,H. DUNANT BAS,45.46533156,4.514679753,0
1177,H. DUNANT BAS,45.46538352,4.514784117,0
1178,G. CLEMENCEAU,45.4653867,4.510000892,0
1179,G. CLEMENCEAU,45.46528678,4.510048125,0
1180,MARECHAL LECLERC,45.46550624,4.516336508,0
1181,MARECHAL LECLERC,45.4655437,4.516261247,0
1186,CROIX RAISIN,45.4675366,4.523425578,0
2184,CROIX RAISIN,45.46759306,4.523299908,0
1187,BAYOLLE,45.46647572,4.548055659,0
1188,BAYOLLE,45.46653842,4.548070956,0
1189,LA BAROLLIERE,45.46750742,4.555029294,0
1190,LA BAROLLIERE,45.46754187,4.555107419,0
1191,MOULIN PAYRE,45.46479112,4.584209047,0
1192,MOULIN PAYRE,45.4650686,4.584284273,0
1193,EGLISE VILLARS,45.46886752,4.35368851,0
1194,TRIOLLET,45.47145575,4.352388751,0
1195,TRIOLLET,45.47145436,4.352465443,0
2250,MAIRIE VILLARS,45.46793568,4.353462682,0
2251,MAIRIE VILLARS,45.46800762,4.353465306,0
1198,LA FEUILLETIERE,45.46945261,4.36163963,0
1199,LA FEUILLETIERE,45.4694814,4.362037174,0
1200,MICHARD,45.47081491,4.359463999,0
1201,MICHARD,45.47090735,4.359825509,0
1202,ASPTT,45.47263617,4.362255039,0
1287,ASPTT,45.47274409,4.362258992,0
1204,MUSEE ART MOD.,45.47047561,4.374173163,0
1205,MUSEE ART MOD.,45.47044103,4.374095147,0
1206,LA MEARIE,45.46777488,4.381120775,0
1207,LA MEARIE,45.46827606,4.380781187,0
1209,PARC MASSENET,45.46891402,4.378374678,0
1210,PARC MASSENET,45.4689424,4.378298986,0
1211,CLOS ST-PRIEST,45.47205895,4.378145437,0
1296,CLOS ST-PRIEST,45.47250955,4.378110908,0
2252,ROUTE DE L'ETRAT,45.46905493,4.381986653,0
1212,MONTYON,45.46785889,4.383413238,0
1213,MONTYON,45.46787384,4.383580058,0
1214,COTTAGES,45.46801617,4.393957829,0
1215,COTTAGES,45.4681359,4.393808805,0
1216,ALLEE TROENES,45.47054588,4.394397274,0
1217,ALLEE TROENES,45.47087698,4.394499127,0
2477,FLEMING,45.47160457,4.395549451,0
2478,FLEMING,45.47202579,4.395155829,0
1221,GEORGES BIZET,45.47098908,4.400131115,0
1222,GEORGES BIZET,45.47087193,4.400139535,0
1223,LA CHEVRE,45.46990737,4.408007935,0
1231,LA CHEVRE,45.47038235,4.408115257,0
1224,MONTREYNAUD,45.47184752,4.402375939,0
1226,MONTREYNAUD,45.47117163,4.402913477,0
1227,MONTREYNAUD,45.47176399,4.402513516,0
1225,TENNIS,45.47215143,4.405891968,0
1317,TENNIS,45.47188684,4.405600672,0
1229,LONGIRON,45.46790789,4.411974638,0
1230,LONGIRON,45.46871207,4.411800174,0
1234,LE MONTCEL,45.46790753,4.432719825,0
1235,LE MONTCEL,45.46815489,4.43344544,0
1236,JEAN ROSTAND,45.4708216,4.435209326,0
1237,JEAN ROSTAND,45.47091345,4.435110487,0
1240,ECOLE DU FAY,45.4697744,4.448753001,0
1241,ECOLE DU FAY,45.4698155,4.448959218,0
1242,ECOLE DU FAY,45.46908455,4.448112722,0
1243,RONSARD,45.46556365,4.490644255,0
1247,RONSARD,45.46600689,4.490994051,0
1244,BELLAY,45.46790311,4.492999235,0
1245,PHILIPPIERE,45.46680343,4.49075649,0
1246,OLLAGNIERE,45.46929278,4.494204567,0
1250,LANGONAND,45.47173426,4.498725541,0
1251,LANGONAND,45.47167107,4.498735861,0
1252,CHAMP DU GEAI,45.47170665,4.503866489,0
1253,CHAMP DU GEAI,45.47181605,4.50379403,0
1254,NOVACIERIES,45.4720782,4.506516041,0
1255,NOVACIERIES,45.47216484,4.506225242,0
2141,NOVACIERIES,45.47273657,4.507833804,0
2142,NOVACIERIES,45.47269786,4.507972989,0
2123,RUE SIBERT,45.46761008,4.504882656,0
2124,RUE SIBERT,45.46762181,4.504742424,0
2125,CHATELARD,45.47033577,4.505872088,0
2126,CHATELARD,45.47032926,4.505743924,0
1256,LYCEE C.LEBOIS,45.46886562,4.5129771,0
1257,LYCEE C.LEBOIS,45.46893732,4.512992712,0
1258,LEON BERARD,45.46998615,4.516896802,0
1265,LEON BERARD,45.46978229,4.51627481,0
1259,LA VALETTE,45.46977875,4.515072342,0
1262,LA VALETTE,45.47016965,4.514409826,0
1260,MONTGOLFIER,45.46965645,4.509337295,0
1261,MONTGOLFIER,45.46972362,4.509122492,0
1268,COIN CHARMILLES,45.47130663,4.519788486,0
2127,COIN CHARMILLES,45.47110454,4.519537478,0
1263,LAURENT CHARLES,45.46964221,4.520682086,0
1264,LAURENT CHARLES,45.4695985,4.520616406,0
1266,CHARMILLES,45.4706459,4.518598426,0
1267,CHARMILLES,45.47065815,4.519353576,0
1269,JULES FERRY,45.47135129,4.516579681,0
1270,AVENUE PAIX BAS,45.47171772,4.515788281,0
2128,COLL. E.RICHARD,45.46847313,4.517412725,0
2129,COLL. E.RICHARD,45.46868895,4.517421235,0
2130,G. DE GAULLE,45.4666626,4.517955255,0
2131,G. DE GAULLE,45.46658016,4.518028744,0
1273,MOLEYRE,45.46842188,4.52830817,0
1274,LE COIN STADE,45.4700338,4.528717404,0
1275,STADE ST-CHAMOND,45.47063883,4.528613476,0
1277,STADE ST-CHAMOND,45.4706141,4.528497377,0
1276,SAINTE MARIE,45.47080693,4.52462934,0
2132,VERONNIERE,45.4677965,4.526697386,0
2185,VERONNIERE,45.46789717,4.52661184,0
1278,COIN MANUFACTURE,45.46846489,4.530701696,0
2023,ZI DU COIN,45.46812055,4.534026337,0
2024,ZI DU COIN,45.46826298,4.533648282,0
1279,LA REVOLANCHE,45.4690384,4.541340693,0
1280,LA REVOLANCHE,45.46908462,4.541278582,0
2445,VIGELON,45.46975761,4.560901055,0
2446,VIGELON,45.46979612,4.560774695,0
1281,MONTRAVEL,45.47581026,4.347955361,0
1282,CURNIEU,45.473687,4.352418916,0
1283,CURNIEU,45.47400177,4.352430389,0
1284,LE PECHIER,45.47555203,4.355288208,0
1285,LE PECHIER,45.47544917,4.355501906,0
1286,HIPPODROME,45.47283226,4.35788778,0
1288,HIPPODROME,45.47306449,4.357486962,0
1289,LYCEE S. WEIL,45.47420594,4.367492933,0
1290,LYCEE S. WEIL,45.47466118,4.367202662,0
1293,LYCEE S. WEIL,45.47451589,4.367274074,0
2133,PARC-CHAMPIROL,45.47689669,4.364521736,0
2134,PARC-CHAMPIROL,45.47685979,4.36457155,0
1294,CITE AGRICULTURE,45.47301614,4.370071363,0
1295,CITE AGRICULTURE,45.47288953,4.370105081,0
1297,LES CEDRES BLEUS,45.47369224,4.382823299,0
1305,LES CEDRES BLEUS,45.47343996,4.382839547,0
1298,EGLISE ST-PRIEST,45.47369023,4.378013791,0
1299,EGLISE ST-PRIEST,45.47379721,4.378068904,0
1300,RESIDENCE ORPEA,45.47547473,4.377376135,0
1301,RESIDENCE ORPEA,45.47554504,4.37746827,0
1302,LES CARRIERES,45.47643117,4.378716182,0
1304,LES CARRIERES,45.47673752,4.379187998,0
1303,L'EPARRE,45.4766279,4.38222838,0
1367,L'EPARRE,45.47663409,4.382382109,0
2479,RUE JANEQUIN,45.47418556,4.392716354,0
2481,RUE JANEQUIN,45.474214,4.39312673,0
2480,SAINT SAENS,45.47252665,4.391413967,0
2482,SAINT-SAENS,45.47299076,4.391623076,0
1312,OFFENBACH,45.47285136,4.396260996,0
2483,OFFENBACH,45.47294412,4.39611096,0
1313,DEBUSSY,45.473229,4.398718145,0
1314,DEBUSSY,45.47323988,4.398616222,0
1315,AMUNDSEN,45.47336507,4.395244054,0
1316,AMUNDSEN,45.47326214,4.39545767,0
1318,ADOLPHE SAX,45.47031707,4.404838476,0
1319,ADOLPHE SAX,45.47013319,4.405049035,0
1320,PONT BAYARD,45.47680895,4.411937729,0
1321,PONT BAYARD,45.47680563,4.412116691,0
1322,MAISON D'ARRET,45.47388637,4.415691006,0
1323,LES FRAISSES,45.47255645,4.431962287,0
1324,LES FRAISSES,45.47269326,4.431865142,0
1325,GEORGE SAND,45.4751389,4.427659829,0
1326,GEORGE SAND,45.47491579,4.428521217,0
2135,MARCHE BESTIAUX,45.47582596,4.427493933,0
2136,MARCHE BESTIAUX,45.47581204,4.427275947,0
2137,W. ROUSSEAU,45.47595145,4.505414401,0
2138,W. ROUSSEAU,45.47612554,4.505254931,0
1331,PLAISANCE,45.47318821,4.510524959,0
1338,PLAISANCE,45.47287488,4.50951491,0
2139,MEDIATHEQUE,45.47730064,4.507769956,0
2140,MEDIATHEQUE,45.47717718,4.507176658,0
1332,PLACE DU MOULIN,45.47506824,4.508257944,0
1333,PLACE DU MOULIN,45.47519215,4.508365145,0
1334,PLACE DU MOULIN,45.47481321,4.508414223,0
1335,PLACE DU MOULIN,45.47511822,4.508464577,0
1336,PLACE DU MOULIN,45.47490836,4.50814933,0
1337,PLACE DU MOULIN,45.47499257,4.50844685,0
2143,PLACE DU MOULIN,45.47472497,4.507860708,0
2144,PLACE DU MOULIN,45.47475473,4.508181673,0
2145,PLACE DU MOULIN,45.47538547,4.508142482,0
1339,CONTI,45.4737223,4.514524152,0
1340,POSTE ST-CHAMOND,45.47466658,4.515482356,0
2148,POSTE ST-CHAMOND,45.47466883,4.515367318,0
2146,LAMARTINE,45.47434743,4.512463712,0
2147,LAMARTINE,45.47457897,4.512127443,0
1341,PALERMES,45.47547927,4.519953223,0
1342,PALERMES,45.47593465,4.52059802,0
1343,GARE ST-CHAMOND,45.47259352,4.516104203,0
1344,GARE ST-CHAMOND,45.47301146,4.516824206,0
1345,GARE ST-CHAMOND,45.47301146,4.516824206,0
1346,GARE ST-CHAMOND,45.47314063,4.517583998,0
1347,COLL. J.ROSTAND,45.47250057,4.531424637,0
1348,COLL. J.ROSTAND,45.47243084,4.531767238,0
2253,COLL. J.ROSTAND,45.47282034,4.533471179,0
1349,VENDEE,45.47325589,4.529625416,0
1350,VENDEE,45.47291015,4.529816369,0
1351,JAREZ,45.4745756,4.529332371,0
2187,JAREZ,45.47513612,4.529661606,0
1353,ILE DE FRANCE,45.47494483,4.533900964,0
2186,ILE DE FRANCE,45.47485029,4.532758721,0
1354,GRANDE TERRE,45.47558149,4.536305605,0
1355,GRANDE TERRE,45.47537466,4.536297377,0
1356,MARCIEUX,45.47259907,4.564187662,0
1357,MARCIEUX,45.47266253,4.564164635,0
1358,LE BESSY 1,45.47446039,4.578666514,0
1359,LE BESSY 2,45.47642212,4.582264012,0
1360,PARC D'ACTIVITE,45.48036162,4.354069408,0
1361,PARC D'ACTIVITE,45.48055048,4.354076298,0
1362,C. C. RATARIEUX,45.47974557,4.357782297,0
1363,C. C. RATARIEUX,45.47959106,4.357866196,0
1364,HOPITAL NORD,45.48016222,4.364091417,0
1365,HOPITAL NORD,45.48006167,4.364177278,0
1366,HOPITAL NORD,45.48026295,4.364491678,0
1368,JEAN MACE,45.47809814,4.381553619,0
1370,JEAN MACE,45.47771715,4.381718618,0
1369,LES MELEZES,45.47776565,4.380543548,0
1371,LES MELEZES,45.47802622,4.380565972,0
1372,LES BIERCES,45.47860576,4.380369926,0
1373,CHATEAUBON,45.4790664,4.402300225,0
1374,CHATEAUBON,45.47914948,4.402674308,0
1375,J.DE LA FONTAINE,45.47898356,4.413081114,0
1376,J.DE LA FONTAINE,45.47902995,4.413006101,0
1377,LA GALOCHE,45.47723194,4.416776192,0
1378,LA GALOCHE,45.47732634,4.417022792,0
1379,ESPACE NATURE,45.47914495,4.421811637,0
1381,ESPACE NATURE,45.47935641,4.422535993,0
1380,ROND PT SABLIERE,45.48043208,4.427578555,0
1434,ROND PT SABLIERE,45.48055,4.426086253,0
1435,ROND PT SABLIERE,45.48090111,4.426560065,0
1382,JEAN BROSSY,45.47778963,4.429320713,0
1383,JEAN BROSSY,45.47777069,4.429371165,0
1384,PLACE WERY,45.47975171,4.430750992,0
1385,PLACE WERY,45.47975171,4.430750992,0
1386,EVRARD,45.47854762,4.437843552,0
1387,EVRARD,45.47870771,4.437465862,0
1388,STADE LA TALAU,45.48009572,4.434960044,0
1389,STADE LA TALAU,45.48009572,4.434960044,0
1390,HAUT LANGONAND,45.48047847,4.451413429,0
1391,HAUT LANGONAND,45.48046028,4.451898864,0
2149,PARTERRE,45.48051441,4.508650946,0
2150,PARTERRE,45.48025963,4.508794456,0
2151,SAINT-PIERRE,45.47902282,4.515001576,0
2152,SAINT-PIERRE,45.47908574,4.514543511,0
1396,PICHELIERE,45.47835616,4.511802721,0
1397,PICHELIERE,45.47832542,4.511532865,0
1398,FENDERIE,45.47956041,4.515585647,0
1399,FENDERIE,45.47963435,4.515486216,0
1400,PL. DE L'EGALITE,45.48003121,4.514056234,0
1401,PL. DE L'EGALITE,45.48010315,4.514059067,0
2154,C. C. RECLUSIERE,45.47934067,4.519005499,0
2254,C. C. RECLUSIERE,45.47932943,4.520041285,0
1402,HOTEL DIEU,45.47833539,4.515639715,0
1403,HOTEL DIEU,45.47836536,4.515487384,0
2256,HOTEL DIEU,45.47798745,4.516406355,0
2257,BENOIT ORIOL,45.47694552,4.515840793,0
2258,BENOIT ORIOL,45.47665251,4.516097885,0
1404,HERMITANIERE,45.4785417,4.524884234,0
1405,HERMITANIERE,45.47881021,4.525419368,0
1406,BAZINE,45.47997218,4.527205231,0
1407,BAZINE,45.48037904,4.528027325,0
1409,COURS DAUPHINE,45.47713145,4.534832159,0
1410,COURS DAUPHINE,45.47723339,4.534682701,0
1412,C. MEDICO SOCIAL,45.47863718,4.533318497,0
1413,C. MEDICO SOCIAL,45.47883603,4.533275225,0
2188,BD DE FONSALA,45.47983732,4.534530352,0
2189,BD DE FONSALA,45.47989272,4.534916349,0
1414,AUVERGNE,45.47782784,4.536945052,0
1415,AUVERGNE,45.47892855,4.536349205,0
1416,CROIX BLANCHE,45.48040094,4.57144881,0
1417,LA CROISETTE,45.47952529,4.579217308,0
1418,LA CROISETTE,45.47955072,4.579295099,0
1419,LA PORCHERE,45.48443162,4.343944809,0
1420,LA PORCHERE,45.48390065,4.345447931,0
1421,LA BERTRANDIERE,45.48491728,4.364892665,0
1422,LA LICHERE,45.48248183,4.380513192,0
1423,LA LICHERE,45.4828105,4.380256685,0
1425,EGLISE L'ETRAT,45.48573775,4.378151549,0
2259,EGLISE L'ETRAT,45.48564502,4.37830165,0
1426,LA TOUR EN JAREZ,45.48506128,4.387082152,0
1427,CROIX MALADIERE,45.48207201,4.388634394,0
1429,CROIX MALADIERE,45.48211063,4.388981239,0
1428,MONTEE DU BOURG,45.48208139,4.391551553,0
2190,MONTEE DU BOURG,45.48213123,4.390798616,0
1430,LA MALADIERE,45.48249704,4.388522236,0
1431,LA MALADIERE,45.482321,4.388797151,0
1432,LA BUISSONNIERE,45.48480194,4.417662299,0
1433,LA BUISSONNIERE,45.48505631,4.418017307,0
1436,MENDES FRANCE,45.4828466,4.424548283,0
1437,MENDES FRANCE,45.48292873,4.424487418,0
1438,MAIRIE LA TALAU,45.48087345,4.433799814,0
1439,MAIRIE LA TALAU,45.48093508,4.434352248,0
1440,CARNOT,45.48408319,4.436838519,0
1441,CARNOT,45.48420394,4.436638407,0
1442,COLL. P.M.CURIE,45.48162958,4.438101396,0
1443,COLL. P.M.CURIE,45.48151099,4.43818644,0
2159,COLL. P.M.CURIE,45.48058423,4.438176803,0
2160,COLL. P.M.CURIE,45.4817526,4.438259589,0
2157,IMPASSE V.HUGO,45.48199474,4.437347681,0
2158,IMPASSE V.HUGO,45.48218898,4.437546959,0
1444,LA VAURE,45.48172157,4.444207232,0
1445,LA VAURE,45.48180747,4.444901339,0
1446,LA VAURE,45.48175868,4.443671332,0
1447,LA VAURE,45.48165831,4.443744267,0
2260,LA VAURE,45.48108524,4.44406784,0
1448,CHADET,45.48410504,4.448571195,0
1449,CHADET,45.48420788,4.448843792,0
1450,LA RIVOIRE,45.48255813,4.503511423,0
1451,LA RIVOIRE,45.48279393,4.503418315,0
1454,MAGNOLIAS,45.48247814,4.521483377,0
1455,MAGNOLIAS,45.48263327,4.520913789,0
1456,CLOS MARQUET,45.4848385,4.518595595,0
1457,CLOS MARQUET,45.48524916,4.517844143,0
1458,FONT ROZET,45.48195651,4.523765609,0
1460,FONT ROZET,45.48189356,4.523763119,0
1459,LA FAYETTE,45.48158436,4.527601735,0
1463,LA FAYETTE,45.48155086,4.527933039,0
1464,LA FAYETTE,45.48154534,4.528214278,0
1461,ST JULIEN,45.48075661,4.526212843,0
1462,ST JULIEN,45.48076911,4.526034232,0
2207,FOURNEL,45.48215352,4.525654067,0
2208,FOURNEL,45.48202964,4.525086244,0
1465,MALADIERE,45.48136362,4.529678325,0
1466,MALADIERE,45.4813494,4.529485858,0
1467,AVENUE PASTEUR,45.48209231,4.531984497,0
1468,AVENUE PASTEUR,45.48199892,4.531699329,0
1469,GARAT,45.48404095,4.536322313,0
1470,GARAT,45.48415962,4.536237475,0
2163,C. C. MALADIERE,45.48306739,4.533200251,0
2164,C. C. MALADIERE,45.48312512,4.533010636,0
2191,C. C. MALADIERE,45.48282173,4.531962284,0
1471,GRANGE MERLIN,45.48155182,4.572403682,0
1472,HOTEL ST-PAUL,45.48226925,4.577473488,0
1473,HOTEL ST-PAUL,45.48219808,4.577432221,0
1474,ST PAUL BOURG,45.4830201,4.57458687,0
1476,ST PAUL BOURG,45.48303904,4.573640876,0
1475,LE PARC,45.48507371,4.57405586,0
1478,LE PARC,45.48523225,4.574228606,0
1477,LE PECHER,45.48533433,4.575422635,0
1558,LE PECHER,45.48540752,4.574913814,0
1479,LES MOLINEAUX,45.48921047,4.328841735,0
1480,LES MOLINEAUX,45.48858866,4.329395072,0
1481,LES OLLIERES,45.48609308,4.37396827,0
1482,LES OLLIERES,45.48618254,4.373997155,0
1483,LILAS,45.48678153,4.370756746,0
1484,LILAS,45.48689938,4.370709905,0
1485,MYOSOTIS,45.48895731,4.37630007,0
1487,MYOSOTIS,45.48900111,4.376365659,0
1486,PEUPLIERS,45.48906929,4.372133168,0
1488,PEUPLIERS,45.48928023,4.372409622,0
1489,CENTRE FORMATION,45.48580837,4.372307376,0
1490,CENTRE FORMATION,45.4856903,4.372366998,0
1493,LES FLACHES,45.48860634,4.38024062,0
1494,LES FLACHES,45.48935967,4.380383618,0
2192,BOURG L'ETRAT,45.48605263,4.379634474,0
2193,BOURG L'ETRAT,45.4859982,4.37965805,0
1495,LES BROSSETTES,45.49983266,4.3849299,0
1566,LES BROSSETTES,45.4992384,4.38494627,0
1496,BRAYETIERE,45.48726532,4.436076583,0
1497,BRAYETIERE,45.48724565,4.436165397,0
1498,LA LONGEAGNE,45.48650453,4.449225802,0
1499,LA LONGEAGNE,45.48683872,4.449161806,0
1502,ECOLE CHAVANNE,45.49000799,4.487770883,0
1542,ECOLE CHAVANNE,45.49012501,4.48730201,0
1503,RUE DES GENETS,45.48736359,4.495626293,0
1504,RUE DES GENETS,45.48741004,4.495551338,0
1505,LE VALLON,45.48894401,4.491145762,0
1506,LE VALLON,45.48887662,4.491373447,0
1507,LES CAMPANULES,45.48684183,4.498407935,0
1508,LES CAMPANULES,45.48681782,4.49825346,0
1509,PEYRARD,45.4898347,4.516220917,0
1510,CRET OEILLET HT,45.48596003,4.524295028,0
1511,CRET OEILLET,45.48680053,4.525953215,0
2165,STELYTEC,45.48950622,4.523360548,0
2209,RD PT STELYTEC,45.49008154,4.522014191,0
2210,RD PT STELYTEC,45.48982549,4.522221591,0
1512,CRET OEILLET BAS,45.48533017,4.526585887,0
1513,CRET OEILLET BAS,45.48576458,4.526462355,0
1514,CHATAIGNIERS,45.48578731,4.52989218,0
1515,BLEUETS,45.48748434,4.533298974,0
1516,POINT BLEU,45.48581217,4.540064818,0
1517,BATTANT COTES,45.48734546,4.538526565,0
1518,MIMOSAS,45.4923303,4.54086206,0
1519,MAIRIE L'HORME,45.48601739,4.541979394,0
1520,MAIRIE L'HORME,45.4861242,4.54249544,0
1521,ZONE ARTISANALE,45.48788572,4.546263495,0
1522,ZONE ARTISANALE,45.48833881,4.547471555,0
1523,QUARTIER MOULIN,45.48963457,4.550210425,0
1524,QUARTIER MOULIN,45.48994754,4.55122101,0
1525,LE VERNAY,45.49334548,4.323539918,0
1526,LE VERNAY,45.49301717,4.323784024,0
1527,LA PAUSE,45.49177987,4.381893359,0
1528,LA PAUSE,45.49174623,4.381764162,0
1529,LE VAL JOLY,45.49272438,4.435311429,0
1530,LE VAL JOLY,45.49403101,4.435220278,0
1531,COLOMBIER,45.49034596,4.445009436,0
2261,COLOMBIER,45.4904272,4.445473162,0
1532,MAIRIE SORBIERS,45.49094765,4.447936922,0
2262,MAIRIE SORBIERS,45.49096478,4.448935612,0
1533,PRAIRIE,45.49155626,4.444300663,0
2211,PRAIRIE,45.49182653,4.444285376,0
2169,NELSON MANDELA,45.50049577,4.444142432,0
1537,BOURG,45.48937489,4.450678959,0
2171,BOURG,45.48948741,4.450440156,0
2172,BOURG,45.48977881,4.450259372,0
1538,FOLLEREAU SAUZEA,45.49237034,4.45122856,0
1539,FOLLEREAU SAUZEA,45.49224831,4.451019162,0
1540,SAPINS,45.49456744,4.445925417,0
2170,SAPINS,45.49456086,4.445797204,0
1544,CHAVANNE BOURG,45.49223572,4.48611734,0
1546,PEYRARD HAUT,45.4917514,4.515771858,0
1547,LE COLOMBIER,45.49195366,4.510469552,0
1548,ROUTE AERODROME,45.49094691,4.537991838,0
1549,PLANEZE,45.4923303,4.54086206,0
1550,PLAT DU GIER,45.49159073,4.554588192,0
1551,PLAT DU GIER,45.49185946,4.555558676,0
1552,LES ROUARDES,45.49349353,4.558925742,0
1553,LES ROUARDES,45.49375348,4.559883132,0
1554,ECOLE MATERNELLE,45.49351852,4.566706984,0
1555,ECOLE MATERNELLE,45.49331328,4.5670698,0
1556,ZI LES FRARIES,45.48997739,4.570070143,0
1557,ZI LES FRARIES,45.49036868,4.569855628,0
1559,MAISON FORTE,45.49452126,4.598317059,0
2358,POMPIERS,45.49886099,4.241930336,0
2359,POMPIERS,45.4987498,4.242118448,0
1560,GARE FOUILLOUSE,45.49874279,4.319101548,0
1561,GARE FOUILLOUSE,45.49880574,4.319103805,0
1562,GRANDES MAISONS,45.49673981,4.319899854,0
1563,GRANDES MAISONS,45.49690638,4.320148957,0
1564,4 VENTS,45.49482151,4.383375058,0
1565,LE GOUTTON,45.49737245,4.383149595,0
1567,LE GARRAS,45.4984639,4.434467189,0
1598,LE GARRAS,45.49900252,4.434538819,0
1568,LES ALOUETTES,45.4961866,4.434969403,0
1569,LES ALOUETTES,45.49657786,4.434741121,0
1570,LA DONZELLIERE,45.49808414,4.504823913,0
1571,BOURDON,45.49741411,4.52442842,0
1572,FAUBOURG COUZON,45.49825788,4.554676555,0
1574,FAUBOURG COUZON,45.49804484,4.554527235,0
1573,PUITS ST-JEAN,45.49786623,4.557629841,0
1575,PUITS ST-JEAN,45.49806147,4.558674281,0
1576,BAS FAUB. COUZON,45.49661127,4.556018166,0
1577,BAS FAUB. COUZON,45.49672538,4.556163516,0
1578,LA BACHASSE,45.49598185,4.564131787,0
1579,LA BACHASSE,45.49596463,4.564092702,0
1580,LA BACHASSE,45.49688112,4.564168025,0
1581,LA BACHASSE,45.4973976,4.564444786,0
1584,LES 4 CHEMINS,45.49806883,4.580379182,0
1585,LES 4 CHEMINS,45.49798173,4.580682788,0
1586,LOGE DU TREVE,45.49686226,4.584886046,0
1587,LOGE DU TREVE,45.49689644,4.584529111,0
1588,DURETAY,45.49720074,4.588636656,0
1589,DURETAY,45.49710744,4.58924713,0
1590,LA BOUTARIE,45.49731571,4.593645144,0
1591,LA BOUTARIE,45.4974058,4.59453185,0
1592,LA PRUDENCHE,45.49748161,4.600127463,0
1593,LA PRUDENCHE,45.49767996,4.60010999,0
2360,PLACE REPUBLIQUE,45.49981458,4.240363638,0
2361,PLACE REPUBLIQUE,45.49968098,4.240282258,0
2362,POYET,45.50284058,4.240224707,0
2363,POYET,45.5027513,4.240183241,0
2364,LES BARQUES,45.50180803,4.253254893,0
2365,LES BARQUES,45.50176767,4.253509434,0
2366,S. POLYVALENTE,45.50054611,4.247593375,0
2367,S.POLYVALENTE,45.50041296,4.247486399,0
1594,CTRE FOUILLOUSE,45.50205423,4.315560272,0
1595,CTRE FOUILLOUSE,45.50207086,4.315637651,0
1596,PL. DES TILLEULS,45.50100664,4.317800652,0
1597,PL. DES TILLEULS,45.50090522,4.317937785,0
1599,RUE DES ECOLES,45.50164049,4.434958887,0
1600,RUE DES ECOLES,45.50133198,4.434614435,0
1601,LES GENETS,45.49913103,4.450169079,0
1602,LES GENETS,45.49928706,4.45000868,0
1603,TREMOLLET BAS,45.49939055,4.515855467,0
1604,TREMOLLET,45.50007083,4.520195131,0
1605,HAM. DES CHENES,45.50159524,4.552941937,0
1606,HAM. DES CHENES,45.50166529,4.552586394,0
1607,COMBERIGOL,45.50322687,4.550537228,0
1608,COMBERIGOL,45.50346562,4.550751571,0
1609,PUITS ST-ANTOINE,45.49973429,4.559637381,0
1610,PUITS ST-ANTOINE,45.5006278,4.560415606,0
1611,POSTE GD CROIX,45.50045002,4.566628306,0
1612,POSTE GD CROIX,45.50047496,4.566731696,0
1613,RUE DES ROSES,45.50209725,4.579659623,0
1614,RUE DES ROSES,45.5022938,4.579731593,0
1615,RUE DU STADE,45.50638248,4.576006496,0
2368,PLACE GAPIAND,45.50758721,4.26361722,0
2369,PLACE GAPIAND,45.5078818,4.263755475,0
2370,LE PONT,45.50370988,4.260410647,0
2371,LE PONT,45.50367016,4.260626822,0
1616,JEAN FAURE,45.50688982,4.307747177,0
1617,JEAN FAURE,45.50678548,4.308050618,0
1618,LA CHARMERAIE,45.50504659,4.311226493,0
1619,LA CHARMERAIE,45.50476508,4.311370012,0
1620,GRAND QUARTIER,45.50334136,4.435919329,0
1623,GRAND QUARTIER,45.50334651,4.436124295,0
1621,EGLISE GD.QUARTI,45.50603226,4.433999332,0
1622,EGLISE GD.QUARTI,45.50626189,4.43375207,0
1624,TRUZEAU,45.50468423,4.510215142,0
1625,LA BRUYASSIERE,45.50601024,4.515143752,0
1626,LE CHAPOTEE,45.50621904,4.545319777,0
1628,LE CHAPOTEE,45.50608314,4.545365542,0
1627,GROS BUISSON,45.50810333,4.545151888,0
1657,GROS BUISSON,45.50803215,4.545110644,0
1629,HAM. COMBERIGOL,45.50544627,4.553441947,0
1630,HAM. COMBERIGOL,45.50548895,4.553558852,0
1631,ECHANGEUR,45.50599385,4.566634409,0
1632,ECHANGEUR,45.50626981,4.566786338,0
1633,LA PERRONIERE,45.50423312,4.565117087,0
1634,LA PERRONIERE,45.50451936,4.565205422,0
1637,MAIRIE GD CROIX,45.50408723,4.56927085,0
2263,CH. DE GAULLE,45.50593165,4.570650893,0
2264,CH. DE GAULLE,45.50509191,4.569887398,0
2265,CH. DE GAULLE,45.50527871,4.56999734,0
1639,PARC ARAGON,45.50599233,4.579305732,0
1640,LES ROSES,45.50106328,4.573320922,0
1641,LES ROSES,45.50119689,4.57339032,0
1642,COLL. C.EXBRAYAT,45.49886209,4.572681547,0
1643,COLL. C.EXBRAYAT,45.49886209,4.572681547,0
1644,PROVENDE,45.50581482,4.583663116,0
1645,PROVENDE,45.50576831,4.584185999,0
1646,EGLANTINES,45.5074001,4.583599575,0
1647,RUE DES ROULES,45.50454788,4.584456346,0
1648,RUE DES ROULES,45.50458642,4.584329922,0
2372,SAINT COME,45.50946625,4.2384947,0
2373,SAINT COME,45.50947894,4.238277558,0
2374,CINEPOLE,45.51138296,4.263723966,0
2375,CINEPOLE,45.51318455,4.263620391,0
1649,LES PERROTINS,45.51056472,4.302451353,0
1650,LES PERROTINS,45.5106976,4.302571273,0
1651,LE SAUZET,45.51253801,4.378629588,0
1673,LE SAUZET,45.51255985,4.378911996,0
1652,MONTROND,45.51002661,4.384565343,0
1653,MONTROND,45.51009621,4.384695917,0
1654,LA GLACIERE,45.50994563,4.508540479,0
1655,SALCIGNEUX,45.50848751,4.541647291,0
1656,SALCIGNEUX,45.50824395,4.541675972,0
1658,COUTTANGE,45.51102598,4.549364826,0
1659,COUTTANGE,45.51088348,4.548834304,0
1660,LA FAVERGE,45.50888421,4.561144639,0
1661,LA FAVERGE,45.50896667,4.561071158,0
1662,JARDIERE,45.51221758,4.555992113,0
1663,JARDIERE,45.51226229,4.55600671,0
1664,OREE DU VERGER,45.51055678,4.557141449,0
1665,OREE DU VERGER,45.51051903,4.557229534,0
1666,ASSAILLY,45.5091698,4.573892223,0
1667,ASSAILLY,45.50919937,4.574213423,0
2175,MAIRIE LORETTE,45.51119491,4.577929594,0
2176,MAIRIE LORETTE,45.51122576,4.578186857,0
2177,RUE DU PILAT,45.51103467,4.582774515,0
2376,CIMETIERE S.JUST,45.51535029,4.263273502,0
2377,CIMETIERE S.JUST,45.51540139,4.263441686,0
1671,VORZELAS,45.51450478,4.301004288,0
1672,VORZELAS,45.51490004,4.301043938,0
1674,LE COIN,45.51563636,4.376516749,0
1675,LE COIN,45.51559525,4.376796848,0
1676,LA FOUGERE,45.51358563,4.425197658,0
1677,LA FOUGERE,45.51413953,4.425897025,0
1678,LE PUYT,45.51428402,4.442658571,0
1679,LE PUYT,45.51442012,4.442599754,0
1680,ALBUZY,45.51474126,4.453710322,0
1681,ALBUZY,45.51485865,4.453689218,0
1682,URBAIN,45.51619003,4.457042938,0
1683,URBAIN,45.51619736,4.458080117,0
1684,BERTHASSIERE,45.51367925,4.465561436,0
1685,BERTHASSIERE,45.51367925,4.465561436,0
1686,JUSSERANDIERE,45.51472645,4.543368393,0
1687,JUSSERANDIERE,45.51547724,4.5427199,0
1688,MULET,45.51509264,4.559410352,0
1689,MULET,45.51510291,4.559346757,0
1692,PLACE E. BROSSE,45.51434137,4.58482913,0
1693,PLACE E. BROSSE,45.5143447,4.585110896,0
2266,CENTRE,45.51301999,4.581613511,0
2267,CENTRE,45.51302256,4.581933641,0
1695,COLL. F.TRUFFAUT,45.51715589,4.600562154,0
2378,GYMNASE EGLISE,45.52004058,4.220386561,0
2379,GYMNASE EGLISE,45.52035908,4.219642148,0
2380,PONT DE BONSON,45.51805789,4.223762356,0
2391,PONT DE BONSON,45.51818272,4.223830622,0
1696,MONTMOLLOT,45.51855451,4.379837632,0
1697,MONTMOLLOT,45.51863534,4.379354166,0
1698,LE JOANNET,45.51743707,4.430028533,0
1699,LE JOANNET,45.51698393,4.429716937,0
1700,VIEIL ALBUZY,45.51830811,4.446409207,0
1701,VIEIL ALBUZY,45.51826145,4.446497037,0
1702,LE REY,45.52066211,4.448521839,0
1703,LE REY,45.51989233,4.448300387,0
1704,FAYET,45.51941202,4.463196311,0
1705,FAYET,45.51973771,4.463580106,0
1706,MAISONNEUVE 2,45.51726562,4.471460292,0
1709,MAISONNEUVE 2,45.51725418,4.471587866,0
1707,MAISONNEUVE 1,45.52033738,4.475547672,0
1708,MAISONNEUVE 1,45.52029945,4.475648622,0
2027,MAIRIE VALFLEURY,45.52096186,4.493636094,0
2028,MAIRIE VALFLEURY,45.52086773,4.493850061,0
2029,HAUT,45.52420147,4.491317154,0
2030,HAUT,45.52427994,4.491448247,0
2178,LA PICOTE,45.51834906,4.542220058,0
1714,GREZIEUX,45.51712438,4.591432992,0
1715,GREZIEUX,45.51682482,4.591113521,0
1716,RUE DE SAVOIE,45.51888585,4.594679885,0
1717,RUE DE SAVOIE,45.51897087,4.594926606,0
1718,LE GRAND PONT,45.52080419,4.598176664,0
1719,LE GRAND PONT,45.52040217,4.597584081,0
1720,SAVOIE,45.52027495,4.5958633,0
1721,SAVOIE,45.52006993,4.595765298,0
1723,COLL. L.MICHEL,45.52258776,4.613178406,0
2381,GARE BONSON,45.52263636,4.215328762,0
2382,GARE BONSON,45.52256892,4.215057634,0
2031,PL. DU FOREZ,45.52503634,4.257862948,0
2032,PL. DU FOREZ,45.52490977,4.257896954,0
1729,AV. ST-ETIENNE,45.52595187,4.268969089,0
1730,AV. ST-ETIENNE,45.52599463,4.269098611,0
1731,RD PT DE L'AVION,45.52564526,4.271608508,0
1732,RD PT DE L'AVION,45.52575996,4.271740552,0
1733,LA GOUYONNIERE,45.52311191,4.293078503,0
1734,LA GOUYONNIERE,45.52324682,4.293083279,0
1735,GRIGNOTIERE,45.52433616,4.373201961,0
1736,GRIGNOTIERE,45.52486886,4.373106371,0
1737,LE GRELON,45.52258639,4.450989489,0
1738,LE GRELON,45.52268797,4.450852546,0
1739,BORGIA,45.52242153,4.468676473,0
1740,BORGIA,45.52253548,4.469308204,0
1741,GRANGE FLACHON,45.52364286,4.47776253,0
1742,GRANGE FLACHON,45.52365088,4.477814053,0
1745,LE RECOU,45.52200794,4.485111921,0
1746,LE RECOU,45.52209984,4.485013073,0
1747,LE GRAND LOGIS,45.52159263,4.487989159,0
1748,LE GRAND LOGIS,45.52171939,4.487481989,0
1749,MAIRIE CELLIEU,45.52297128,4.541495553,0
1750,MAIRIE CELLIEU,45.52284336,4.541592873,0
1751,LE BACHAT MAIRIE,45.52289598,4.539380029,0
1752,LE BACHAT MAIRIE,45.52297591,4.539434428,0
1753,LE SARDON,45.52149127,4.593570075,0
1754,LE SARDON,45.52166549,4.593410751,0
1755,LYCEE R.CASSIN,45.52240127,4.601532486,0
1756,LYCEE R.CASSIN,45.52179492,4.599920037,0
1757,GARE R. DE GIER,45.52424473,4.606934421,0
1759,GARE R. DE GIER,45.52408816,4.606223782,0
1760,LES COLLINES,45.52564002,4.613560264,0
1761,LES COLLINES,45.52555375,4.613377451,0
2383,LA PLAINE BONSON,45.52925077,4.203493043,0
2384,LA PLAINE BONSON,45.52907047,4.203512557,0
1762,COLL. J.PREVERT,45.52799264,4.264392918,0
1763,COLL. J.PREVERT,45.52806393,4.264433815,0
1764,RD PT DALLIERE,45.52681531,4.262213762,0
1765,RD PT DALLIERE,45.5269127,4.262306777,0
1766,RUE RACINE,45.52633749,4.265397799,0
1767,RUE RACINE,45.52632143,4.265806927,0
1768,LA CHAPELLE,45.52726855,4.269847332,0
1769,LA CHAPELLE,45.52722159,4.269960916,0
1770,RD PT COLONNA,45.53001812,4.281505246,0
1771,RD PT COLONNA,45.53018833,4.281549649,0
1772,AEROPORT,45.52987183,4.2898993,0
1773,AEROPORT,45.52978799,4.290062783,0
1774,LES ESSARTS,45.52822353,4.295128793,0
1775,LES ESSARTS,45.5278616,4.296268255,0
2033,ENVOL STADIUM,45.52472838,4.300458779,0
2034,ENVOL STADIUM,45.52450512,4.300361226,0
1776,MAIRIE ST HEAND,45.52910691,4.372648005,0
1777,MAIRIE ST HEAND,45.52930593,4.37259132,0
1778,LE PILON,45.52901438,4.433181686,0
1779,LE PILON,45.52902853,4.433387088,0
1780,MOULIN GUICHARD,45.527287,4.464126819,0
1781,MOULIN GUICHARD,45.52728578,4.464190791,0
1782,LA CORDONNIERE,45.52919179,4.465237317,0
1783,LA CORDONNIERE,45.52925547,4.465201358,0
1784,LE TERRIER,45.52642668,4.490264406,0
1785,LE TERRIER,45.52649086,4.490202889,0
1786,LES ECHERIES,45.52790363,4.50279318,0
1787,LES ECHERIES,45.52784968,4.502791064,0
1788,CHATAIGNIERE,45.52910197,4.517539669,0
1789,CHATAIGNIERE,45.52910897,4.517642381,0
1790,TONNERIEUX,45.52873722,4.523773821,0
1791,TONNERIEUX,45.52874198,4.523530725,0
1792,LE TREVE,45.52969749,4.55180293,0
1793,LE TREVE,45.53017181,4.552846341,0
1794,MTEE DES ROCHES,45.53029511,4.559330582,0
1795,MTEE DES ROCHES,45.53012069,4.559502833,0
1796,CARREF. LEYMIEUX,45.52832027,4.563143693,0
1799,CARREF. LEYMIEUX,45.52838016,4.563299761,0
1797,LE CERCLE,45.53027825,4.561084181,0
1798,LE CERCLE,45.53037615,4.561139343,0
1800,GRAVENANT,45.52825069,4.595779724,0
1801,GRAVENANT,45.52826821,4.595357887,0
1802,LA MADELEINE,45.5421369,4.642136224,0
1891,LA MADELEINE,45.54256513,4.642756085,0
1803,BALDEYROU,45.5294629,4.612783066,0
1806,BALDEYROU,45.52951633,4.612810878,0
1805,GARE ROUTIERE RG,45.52749119,4.613700584,0
2179,GARE ROUTIERE RG,45.52760093,4.613615475,0
2180,GARE ROUTIERE RG,45.52772669,4.61406882,0
2214,GARE ROUTIERE RG,45.52749119,4.613700584,0
1808,MAIRIE R.DE GIER,45.5291466,4.620350562,0
1809,MAIRIE R.DE GIER,45.52906086,4.620142139,0
2385,COTE STE AGATHE,45.53432013,4.194125104,0
2386,COTE STE AGATHE,45.53414648,4.194285721,0
1810,RD PT LYCEE,45.53146673,4.269059546,0
1811,RD PT LYCEE,45.53159065,4.269179116,0
2300,NAUTIFORM,45.53223266,4.271083784,0
1812,RD PT BERLIET,45.53378768,4.273788769,0
2301,RD PT BERLIET,45.53382865,4.274020688,0
2447,DOJO ANDREZIEUX,45.53306001,4.270075602,0
2448,DOJO ANDREZIEUX,45.53305669,4.270267551,0
1814,COLLEGE PARKING NORD,45.53217418,4.374707341,0
1815,LA CROIX,45.53205412,4.436651904,0
1816,LA CROIX,45.53208398,4.436499381,0
1817,LA ROCHE,45.53093849,4.475573983,0
1818,LA ROCHE,45.53070565,4.475513749,0
1819,STADE DES ROCHES,45.53105802,4.544443351,0
1820,STADE DES ROCHES,45.53094833,4.544528602,0
1821,MAIRIE CHAGNON,45.53424371,4.554917777,0
1822,CHAPAIRE,45.53211794,4.559992973,0
1823,CHAPAIRE,45.5323324,4.559617442,0
1824,LOUIS MARCHAND,45.5328316,4.582828452,0
1825,LES VERCHERES,45.53464734,4.580251433,0
1826,LES VERCHERES,45.5349685,4.579944325,0
1827,LES BOURDONNES,45.53375573,4.586105913,0
1828,LES BOURDONNES,45.534302,4.585346993,0
1829,PISCINE,45.5303346,4.596428372,0
1830,PISCINE,45.53040117,4.596251823,0
2287,CHAMPAGNIERES,45.53450365,4.59097706,0
2288,CHAMPAGNIERES,45.53455967,4.590876898,0
2289,GRANGE BURLAT,45.53415177,4.595035006,0
2290,GRANGE BURLAT,45.53435731,4.59510744,0
1833,LYCEE G.BRASSENS,45.53282018,4.604354351,0
1834,LES VERNES,45.53297435,4.610059257,0
1835,LES VERNES,45.53289316,4.610068721,0
1836,ST-JEAN,45.53122286,4.62400912,0
1837,ST-JEAN,45.53117685,4.624058436,0
1838,CHIPIER,45.5323863,4.627847795,0
1839,CHIPIER,45.53232815,4.628050275,0
2181,PLACE CHIPIER,45.53256547,4.627010045,0
2268,PASSERELLE,45.53349789,4.63069842,0
2269,PASSERELLE,45.53353727,4.630533577,0
2387,BOULEVARD ORELU,45.53919392,4.185107481,0
2388,BOULEVARD ORELU,45.53912281,4.18505388,0
2389,LES PAROTTES,45.53807868,4.187247043,0
2390,LES PAROTTES,45.53764771,4.187732004,0
1841,CROIX RAPEAU,45.53897546,4.269898477,0
1842,CROIX RAPEAU,45.53832549,4.270016591,0
1870,MONTGOLFIERES,45.53835099,4.273743905,0
2302,MONTGOLFIERES,45.53873338,4.273488395,0
2035,GOUTTERONS,45.53561665,4.287643863,0
2036,GOUTTERONS,45.5354651,4.28756168,0
2303,C. C. ANDREZIEUX,45.53774168,4.28654081,0
2304,C. C. ANDREZIEUX,45.53770147,4.286782695,0
2305,AVENUE BOUCHER,45.5347625,4.286051511,0
2306,AVENUE BOUCHER,45.53495344,4.286455199,0
2307,STADE LAPRA,45.53934593,4.321199072,0
2308,LAPRA,45.53886196,4.320579808,0
1844,RONZIERES,45.53516645,4.377916612,0
1845,RONZIERES,45.53559439,4.378137311,0
1846,PRAJALAS,45.53851774,4.441815265,0
1847,PRAJALAS,45.53851116,4.44168695,0
1848,MOULIN RIVOIRARD,45.53542122,4.476938497,0
1849,MOULIN RIVOIRARD,45.53540128,4.47704017,0
1850,LE FEUILLAT,45.53461509,4.480966632,0
1851,LE FEUILLAT,45.53456448,4.481259196,0
1852,LA GACHET,45.53651995,4.486752075,0
1853,LA GACHET,45.5361622,4.486635702,0
1854,TAPIGNEUX,45.53860675,4.569487942,0
1855,TAPIGNEUX,45.53875804,4.569122656,0
1856,LACHAL,45.53692465,4.576194607,0
1857,LACHAL,45.53708266,4.575944881,0
1858,LE PLON,45.53810181,4.607529608,0
1859,LE PLON,45.53807379,4.607579684,0
1860,FELOIN,45.53739446,4.611778006,0
1861,FELOIN,45.53767884,4.611956209,0
1862,EMILE ZOLA,45.53627759,4.634271671,0
1863,EMILE ZOLA,45.53638498,4.634301751,0
1865,COMBEPLAINE,45.53936192,4.638344659,0
1892,COMBEPLAINE,45.53969547,4.638755592,0
1866,BOUTHEON CENTRE,45.54158198,4.267479667,0
1867,RD PT DE LA ROUE,45.54138039,4.273414729,0
1868,RD PT DE LA ROUE,45.54127946,4.273526447,0
1869,RD PT DE LA ROUE,45.54119966,4.274496923,0
2309,RD PT DE LA ROUE,45.54094072,4.273860336,0
2310,RD PT DE LA ROUE,45.54131503,4.274590614,0
2311,COLI,45.5440096,4.278002144,0
2319,COLI,45.54370326,4.277504717,0
2312,MIGALON,45.54297744,4.284574116,0
2313,MIGALON,45.54247313,4.28459475,0
1871,RUE BLERIOT,45.54176318,4.278845251,0
1872,RUE BLERIOT,45.54170134,4.278779044,0
1873,RUE C.VOISIN,45.5367586,4.28304869,0
1874,RUE C.VOISIN,45.5367062,4.282957207,0
2314,LE COCHET,45.54220422,4.322915409,0
2315,MAIRIE ST BONNET,45.54271632,4.328530398,0
1875,SAUVETERRE,45.54164638,4.386262787,0
1876,SAUVETERRE,45.54164638,4.386262787,0
1877,LE GUENY,45.5436546,4.392074975,0
1878,LE GUENY,45.54372702,4.392052055,0
1879,LAURISSE,45.54322391,4.445670372,0
1880,LAURISSE,45.54332307,4.445661351,0
1881,LE GELAY,45.54067768,4.565831904,0
1882,LE GELAY,45.53994295,4.566570684,0
1883,CATONNIERE,45.54074957,4.610545799,0
1884,CATONNIERE,45.54088498,4.610525758,0
1885,LA DURANTIERE,45.53940519,4.614691247,0
1886,LA DURANTIERE,45.53980125,4.615130227,0
1887,03 JUILLET,45.54237788,4.636113659,0
1888,03 JUILLET,45.54284839,4.635992358,0
1889,GRAND BIEF,45.54369929,4.632249306,0
1890,GRAND BIEF,45.54379926,4.632202228,0
1893,PIZAY,45.54396556,4.638562142,0
1894,PIZAY,45.54394253,4.638369055,0
2316,PLACE CUMINES,45.54833545,4.327823681,0
1895,LA COISSIERE,45.54813718,4.395943417,0
1918,LA COISSIERE,45.54859509,4.395512195,0
2194,BENIERE,45.55198123,4.404169408,0
1896,BOURG FONTANES,45.54799327,4.438999945,0
2182,BOURG FONTANES,45.54815572,4.439454428,0
1897,FONT CHEVALIER,45.54747893,4.441465194,0
1898,FONT CHEVALIER,45.54747162,4.441375257,0
1899,LE CHEVALARD,45.54425187,4.460784292,0
1900,LE CHEVALARD,45.54430437,4.460863158,0
1901,FONTBONNOND,45.54532476,4.467780301,0
1902,FONTBONNOND,45.54533643,4.467639863,0
1903,BOURG ST CHRISTO,45.5458929,4.487936703,0
1904,BOURG ST CHRISTO,45.54594352,4.487644086,0
1905,LA CULA,45.54492128,4.568308698,0
1906,LE PLANTIER,45.54466734,4.594863018,0
1907,LE PATUEL,45.54682524,4.597641137,0
1908,LE PATUEL,45.54696731,4.597736616,0
1909,LA RONZE,45.54816462,4.60527907,0
1910,LA RONZE,45.54816921,4.60416485,0
1911,LES ABRICOTIERS,45.54817656,4.608238512,0
1912,LES ABRICOTIERS,45.54835885,4.607682399,0
1913,MONTBRESSIEUX,45.54467142,4.617726353,0
1914,MONTBRESSIEUX,45.54532268,4.617125626,0
1916,PETIT VAILLE,45.54614122,4.628597789,0
1917,PETIT VAILLE,45.54628825,4.628450184,0
2393,LES 4 ROUTES,45.55117759,4.280841447,0
2577,LES 4 ROUTES,45.55137189,4.281053226,0
2394,AVENUE MAZOYER,45.55070261,4.28020992,0
2395,AVENUE MAZOYER,45.55072305,4.280069746,0
2317,LES OGIERS,45.55180584,4.322440976,0
2318,SOURCIEU,45.55159326,4.327313507,0
1919,LE BOUCHUT,45.5486151,4.481151582,0
1920,LE BOUCHUT,45.54886764,4.481122962,0
1921,LA VIARE,45.54873405,4.493222179,0
1922,LA VIARE,45.54867367,4.493552853,0
1923,FLACHES DU PLEIN,45.55035554,4.491274441,0
1924,FLACHES DU PLEIN,45.55036527,4.491236393,0
1925,LA PLAINE,45.55038003,4.617603488,0
1926,LA PLAINE,45.5501109,4.618002285,0
1927,MILISSIEUX,45.55191109,4.621522613,0
1928,MILISSIEUX,45.55268278,4.621195852,0
2396,CH. DES GRANGES,45.55616276,4.285000791,0
2397,CH. DES GRANGES,45.55613979,4.284769405,0
2320,BUISSONNET,45.55569316,4.325501401,0
1929,LE MAS-ST JOSEPH,45.55531307,4.60871146,0
1931,LE MAS-ST JOSEPH,45.55563966,4.608583977,0
1930,MAIRIE ST-JOSEPH,45.5552372,4.618188464,0
2270,LA BESSONNIERE,45.55922408,4.617315448,0
2271,LA BESSONNIERE,45.55962811,4.616922152,0
2402,LAVOIR FAVOTS,45.56315897,4.298686831,0
2403,LAVOIR FAVOTS,45.56149339,4.300779904,0
1932,LE FRAISSE,45.559471,4.607831985,0
1933,LE FRAISSE,45.55969529,4.607866835,0
1934,LA VIRY,45.56100854,4.612776723,0
1935,LA VIRY,45.56109899,4.612754827,0
2404,AVENUE PLANCHET,45.56254906,4.289825378,0
2405,AVENUE PLANCHET,45.56224277,4.289327718,0
2406,RUE ABBE DELORME,45.56521168,4.296581752,0
2407,RUE ABBE DELORME,45.56512219,4.296552951,0
2408,COLL. A.GUICHARD,45.562108,4.306771792,0
2409,COLL. A.GUICHARD,45.56205559,4.307192692,0
2195,BOURG,45.55668154,4.409866674,0
1941,L'HOPITAL,45.56242835,4.495730143,0
1942,L'HOPITAL,45.56241762,4.495819409,0
1943,LA SAUZIERE,45.56422009,4.613293522,0
1944,LA SAUZIERE,45.56421905,4.613344731,0
2410,GARE VEAUCHE STG,45.56660483,4.293594711,0
2413,GARE VEAUCHE STG,45.56586866,4.292979264,0
2411,PLACE A. BRIAND,45.56865237,4.295896696,0
2412,PLACE A. BRIAND,45.56859323,4.295676782,0
1945,BISSIEUX,45.56968652,4.610917659,0
2321,VERT LOGIS,45.57329255,4.301225335,0
2414,VERT LOGIS,45.57329188,4.301776304,0
2322,TERRE ROUGE,45.57431415,4.330477829,0
1946,BOURG MARCENOD,45.57162637,4.482148031,0
2183,BOURG MARCENOD,45.57163389,4.482225209,0
2323,MAIRIE CHAMBOEUF,45.57679626,4.32044386,0
2324,MAIRIE CHAMBOEUF,45.57717013,4.320675147,0
2325,PUITS BLANC,45.57694879,4.316912479,0
2415,PUITS BLANC,45.57690828,4.31716732,0
2326,HLM CHARPINIERE,45.58412533,4.309544226,0
2327,HLM CHARPINIERE,45.58360786,4.30775709,0
2328,LA RICHELANDE,45.58294573,4.315192404,0
2329,LA RICHELANDE,45.5828511,4.314945507,0
2330,BATIE CHAMBOEUF,45.58057222,4.317606358,0
2331,BATIE CHAMBOEUF,45.58033809,4.318123391,0
2332,LES SOURCES,45.58700167,4.312800033,0
2333,LES SOURCES,45.58588439,4.310837514,0
2334,ROUTE CHEVRIERES,45.58870302,4.319897727,0
2335,ROUTE CHEVRIERES,45.58872901,4.320462629,0
2336,VAL DE COISE,45.58933411,4.328956826,0
2337,PONT DES ROMAINS,45.58677564,4.326070355,0
2338,PONT DES ROMAINS,45.58682573,4.326290051,0
2339,COLL. J. ROMAINS,45.59334127,4.306951088,0
2340,AVENUE RAVEL,45.59282173,4.314469742,0
2341,AVENUE RAVEL,45.59309607,4.314223205,0
2342,LE COLISEE,45.59094612,4.316209855,0
2343,LE COLISEE,45.5907206,4.316240219,0
2344,LA MADONE,45.59202393,4.31988889,0
2345,LA MADONE,45.59099352,4.319633955,0
2346,RD PT DU CHEVAL,45.59559916,4.305980549,0
2347,RD PT DU CHEVAL,45.59589751,4.306414226,0
2348,COL. S.STEPHANIE,45.59280621,4.316366307,0
2349,COL. S.STEPHANIE,45.59293008,4.316486117,0
2350,LA FRARIE,45.59366639,4.313013059,0
2351,LA FRARIE,45.59383054,4.312890752,0
2352,LA BROSSE,45.60030482,4.321327522,0
2353,LA BROSSE,45.60049845,4.321065263,0
2354,VERNAY BAS CMA,45.60402499,4.321640836,0
2355,VERNAY BAS CMA,45.60406687,4.321308996,0
2356,VERNAY HAUT,45.60854664,4.322431806,0
2357,VERNAY HAUT,45.60836323,4.322117475,0
2416,LE CLAVEAU,45.62246689,4.346249486,0
2417,LE CLAVEAU,45.62247933,4.346057558,0
2418,ZI GRANGE EGLISE,45.63146835,4.430662967,0
2419,ZI GRANGE EGLISE,45.63158535,4.429217858,0
2420,PLACE DE GAULLE,45.63021502,4.456629803,0
2421,RUE C. BROSSE,45.63495195,4.375978841,0
2422,RUE C. BROSSE,45.63504725,4.375687311,0
2423,HLM LAMARTINE,45.63545391,4.382014004,0
2426,HLM LAMARTINE,45.63430518,4.382330588,0
2424,PL. DES PORTES,45.63621018,4.386429494,0
2425,PL. DES PORTES,45.63542148,4.385758747,0
2427,RUE DES TILLEULS,45.63603648,4.391490392,0
2428,RUE DES TILLEULS,45.63504438,4.391607364,0
