{
"type": "FeatureCollection",
"features": [
{"type":"Feature","properties":{"name":"Aix-en-Provence%20TGV"},"geometry":{"type":"Point","coordinates":[4.847, 46.097]},"id":"ak020frm4jci"},
{"type":"Feature","properties":{"name":"Bellegarde"},"geometry":{"type":"Point","coordinates":[5.824, 46.114]},"id":"ak020frm4jci"},
{"type":"Feature","properties":{"name":"Bourg-en-Bresse"},"geometry":{"type":"Point","coordinates":[5.275, 46.196]},"id":"ak020frm4jci"},
{"type":"Feature","properties":{"name":"Cluses"},"geometry":{"type":"Point","coordinates":[5.577, 46.171]},"id":"ak020frm4jci"},
{"type":"Feature","properties":{"name":"Nurieux"},"geometry":{"type":"Point","coordinates":[5.521, 46.181]},"id":"ak020frm4jci"},
{"type":"Feature","properties":{"name":"Antibes"},"geometry":{"type":"Point","coordinates":[7.108, 43.584]},"id":"ak020frm4jci"},
{"type":"Feature","properties":{"name":"Cannes"},"geometry":{"type":"Point","coordinates":[7.146, 43.653]},"id":"ak020frm4jci"},
{"type":"Feature","properties":{"name":"Menton"},"geometry":{"type":"Point","coordinates":[7.489, 43.774]},"id":"ak020frm4jci"},
{"type":"Feature","properties":{"name":"Nice-Ville"},"geometry":{"type":"Point","coordinates":[7.272, 43.697]},"id":"ak020frm4jci"},
{"type":"Feature","properties":{"name":"Charleville-M%EF%BF%BDzi%EF%BF%BDres"},"geometry":{"type":"Point","coordinates":[4.72, 49.771]},"id":"ak020frm4jci"},
{"type":"Feature","properties":{"name":"Rethel"},"geometry":{"type":"Point","coordinates":[4.402, 49.5]},"id":"ak020frm4jci"},
{"type":"Feature","properties":{"name":"Sedan"},"geometry":{"type":"Point","coordinates":[4.943, 49.705]},"id":"ak020frm4jci"},
{"type":"Feature","properties":{"name":"Dijon-Ville"},"geometry":{"type":"Point","coordinates":[4.789, 48.119]},"id":"ak020frm4jci"},
{"type":"Feature","properties":{"name":"Carcassonne"},"geometry":{"type":"Point","coordinates":[2.405, 43.179]},"id":"ak020frm4jci"},
{"type":"Feature","properties":{"name":"Narbonne"},"geometry":{"type":"Point","coordinates":[3.026, 43.182]},"id":"ak020frm4jci"},
{"type":"Feature","properties":{"name":"Arles"},"geometry":{"type":"Point","coordinates":[5.071, 43.641]},"id":"ak020frm4jci"},
{"type":"Feature","properties":{"name":"Avignon%20TGV"},"geometry":{"type":"Point","coordinates":[5.095, 43.657]},"id":"ak020frm4jci"},
{"type":"Feature","properties":{"name":"Marseille-Saint-Charles"},"geometry":{"type":"Point","coordinates":[5.432, 43.255]},"id":"ak020frm4jci"},
{"type":"Feature","properties":{"name":"Miramas"},"geometry":{"type":"Point","coordinates":[5.021, 43.643]},"id":"ak020frm4jci"},
{"type":"Feature","properties":{"name":"Angoul%EF%BF%BDme"},"geometry":{"type":"Point","coordinates":[0.151, 45.655]},"id":"ak020frm4jci"},
{"type":"Feature","properties":{"name":"Champagne-Ardenne%20TGV"},"geometry":{"type":"Point","coordinates":[-0.222, 45.62]},"id":"ak020frm4jci"},
{"type":"Feature","properties":{"name":"La%20Rochelle-Ville"},"geometry":{"type":"Point","coordinates":[-1.154, 46.158]},"id":"ak020frm4jci"},
{"type":"Feature","properties":{"name":"Rouen-Rive-Droite"},"geometry":{"type":"Point","coordinates":[-0.973, 46.318]},"id":"ak020frm4jci"},
{"type":"Feature","properties":{"name":"Surg%EF%BF%BDres"},"geometry":{"type":"Point","coordinates":[-0.741, 46.114]},"id":"ak020frm4jci"},
{"type":"Feature","properties":{"name":"Beaune"},"geometry":{"type":"Point","coordinates":[4.67, 47.104]},"id":"ak020frm4jci"},
{"type":"Feature","properties":{"name":"Montbard"},"geometry":{"type":"Point","coordinates":[4.364, 47.837]},"id":"ak020frm4jci"},
{"type":"Feature","properties":{"name":"Guingamp"},"geometry":{"type":"Point","coordinates":[-3.155, 48.563]},"id":"ak020frm4jci"},
{"type":"Feature","properties":{"name":"Lamballe"},"geometry":{"type":"Point","coordinates":[-2.538, 48.439]},"id":"ak020frm4jci"},
{"type":"Feature","properties":{"name":"Lannion"},"geometry":{"type":"Point","coordinates":[-3.472, 48.744]},"id":"ak020frm4jci"},
{"type":"Feature","properties":{"name":"M%EF%BF%BDcon-Ville"},"geometry":{"type":"Point","coordinates":[-2.197, 48.581]},"id":"ak020frm4jci"},
{"type":"Feature","properties":{"name":"Saint-Brieuc"},"geometry":{"type":"Point","coordinates":[-2.763, 48.503]},"id":"ak020frm4jci"},
{"type":"Feature","properties":{"name":"Besan%EF%BF%BDon-Viotte"},"geometry":{"type":"Point","coordinates":[6.026, 47.248]},"id":"ak020frm4jci"},
{"type":"Feature","properties":{"name":"Frasne"},"geometry":{"type":"Point","coordinates":[6.149, 46.856]},"id":"ak020frm4jci"},
{"type":"Feature","properties":{"name":"Mont%EF%BF%BDlimar"},"geometry":{"type":"Point","coordinates":[4.744, 44.546]},"id":"ak020frm4jci"},
{"type":"Feature","properties":{"name":"Valence%20TGV"},"geometry":{"type":"Point","coordinates":[4.891, 45.065]},"id":"ak020frm4jci"},
{"type":"Feature","properties":{"name":"Valence-Ville"},"geometry":{"type":"Point","coordinates":[4.891, 44.933]},"id":"ak020frm4jci"},
{"type":"Feature","properties":{"name":"Brest"},"geometry":{"type":"Point","coordinates":[-4.502, 48.391]},"id":"ak020frm4jci"},
{"type":"Feature","properties":{"name":"Landerneau"},"geometry":{"type":"Point","coordinates":[-4.253, 48.45]},"id":"ak020frm4jci"},
{"type":"Feature","properties":{"name":"Quimper"},"geometry":{"type":"Point","coordinates":[-4.094, 48.014]},"id":"ak020frm4jci"},
{"type":"Feature","properties":{"name":"Quimperl%EF%BF%BD"},"geometry":{"type":"Point","coordinates":[-3.548, 47.884]},"id":"ak020frm4jci"},
{"type":"Feature","properties":{"name":"Rosporden"},"geometry":{"type":"Point","coordinates":[-3.791, 47.989]},"id":"ak020frm4jci"},
{"type":"Feature","properties":{"name":"Morlaix"},"geometry":{"type":"Point","coordinates":[-3.833, 48.579]},"id":"ak020frm4jci"},
{"type":"Feature","properties":{"name":"N%EF%BF%BDmes"},"geometry":{"type":"Point","coordinates":[4.386, 43.832]},"id":"ak020frm4jci"},
{"type":"Feature","properties":{"name":"N%EF%BF%BDmes-Pont-du-Gard"},"geometry":{"type":"Point","coordinates":[4.37, 43.851]},"id":"ak020frm4jci"},
{"type":"Feature","properties":{"name":"Meuse%20TGV"},"geometry":{"type":"Point","coordinates":[1.484, 43.583]},"id":"ak020frm4jci"},
{"type":"Feature","properties":{"name":"Toulouse-Matabiau"},"geometry":{"type":"Point","coordinates":[1.447, 43.61]},"id":"ak020frm4jci"},
{"type":"Feature","properties":{"name":"Arcachon"},"geometry":{"type":"Point","coordinates":[-1.17, 44.662]},"id":"ak020frm4jci"},
{"type":"Feature","properties":{"name":"Bordeaux-Saint-Jean"},"geometry":{"type":"Point","coordinates":[-0.57, 44.838]},"id":"ak020frm4jci"},
{"type":"Feature","properties":{"name":"Facture-Biganos"},"geometry":{"type":"Point","coordinates":[-0.956, 44.65]},"id":"ak020frm4jci"},
{"type":"Feature","properties":{"name":"Libourne"},"geometry":{"type":"Point","coordinates":[-0.24, 44.896]},"id":"ak020frm4jci"},
{"type":"Feature","properties":{"name":"La%20Teste"},"geometry":{"type":"Point","coordinates":[-1.133, 44.633]},"id":"ak020frm4jci"},
{"type":"Feature","properties":{"name":"Agde"},"geometry":{"type":"Point","coordinates":[3.483, 43.318]},"id":"ak020frm4jci"},
{"type":"Feature","properties":{"name":"B%EF%BF%BDziers"},"geometry":{"type":"Point","coordinates":[3.236, 43.42]},"id":"ak020frm4jci"},
{"type":"Feature","properties":{"name":"Montpellier-Saint-Roch"},"geometry":{"type":"Point","coordinates":[3.89, 43.603]},"id":"ak020frm4jci"},
{"type":"Feature","properties":{"name":"Montpellier-Sud-de-France"},"geometry":{"type":"Point","coordinates":[3.924, 43.595]},"id":"ak020frm4jci"},
{"type":"Feature","properties":{"name":"S%EF%BF%BDte"},"geometry":{"type":"Point","coordinates":[3.698, 43.409]},"id":"ak020frm4jci"},
{"type":"Feature","properties":{"name":"TGV%20Haute-Picardie"},"geometry":{"type":"Point","coordinates":[3.68, 43.394]},"id":"ak020frm4jci"},
{"type":"Feature","properties":{"name":"Dol-de-Bretagne"},"geometry":{"type":"Point","coordinates":[-1.738, 48.551]},"id":"ak020frm4jci"},
{"type":"Feature","properties":{"name":"Plouaret-Tr%EF%BF%BDgor"},"geometry":{"type":"Point","coordinates":[-1.704, 48.035]},"id":"ak020frm4jci"},
{"type":"Feature","properties":{"name":"Redon"},"geometry":{"type":"Point","coordinates":[-2.083, 47.652]},"id":"ak020frm4jci"},
{"type":"Feature","properties":{"name":"Rennes"},"geometry":{"type":"Point","coordinates":[-1.684, 48.11]},"id":"ak020frm4jci"},
{"type":"Feature","properties":{"name":"Saint-Malo"},"geometry":{"type":"Point","coordinates":[-1.974, 48.657]},"id":"ak020frm4jci"},
{"type":"Feature","properties":{"name":"Vitr%EF%BF%BD"},"geometry":{"type":"Point","coordinates":[-1.218, 48.131]},"id":"ak020frm4jci"},
{"type":"Feature","properties":{"name":"Lorraine%20TGV"},"geometry":{"type":"Point","coordinates":[0.71, 47.381]},"id":"ak020frm4jci"},
{"type":"Feature","properties":{"name":"Saint-Pierre-des-Corps"},"geometry":{"type":"Point","coordinates":[0.761, 47.386]},"id":"ak020frm4jci"},
{"type":"Feature","properties":{"name":"Tours"},"geometry":{"type":"Point","coordinates":[0.696, 47.402]},"id":"ak020frm4jci"},
{"type":"Feature","properties":{"name":"Grenoble"},"geometry":{"type":"Point","coordinates":[5.741, 45.177]},"id":"ak020frm4jci"},
{"type":"Feature","properties":{"name":"Mouchard"},"geometry":{"type":"Point","coordinates":[5.792, 46.978]},"id":"ak020frm4jci"},
{"type":"Feature","properties":{"name":"Dax"},"geometry":{"type":"Point","coordinates":[-1.068, 43.709]},"id":"ak020frm4jci"},
{"type":"Feature","properties":{"name":"Vend%EF%BF%BDme%20-%20Villiers-sur-Loir"},"geometry":{"type":"Point","coordinates":[1.036, 47.799]},"id":"ak020frm4jci"},
{"type":"Feature","properties":{"name":"Montauban-Ville-Bourbon"},"geometry":{"type":"Point","coordinates":[4.36, 45.429]},"id":"ak020frm4jci"},
{"type":"Feature","properties":{"name":"Saint-%EF%BF%BDtienne-Ch%EF%BF%BDteaucreux"},"geometry":{"type":"Point","coordinates":[4.4, 45.443]},"id":"ak020frm4jci"},
{"type":"Feature","properties":{"name":"Ancenis"},"geometry":{"type":"Point","coordinates":[-1.184, 47.366]},"id":"ak020frm4jci"},
{"type":"Feature","properties":{"name":"La%20Baule-Escoublac"},"geometry":{"type":"Point","coordinates":[-2.371, 47.285]},"id":"ak020frm4jci"},
{"type":"Feature","properties":{"name":"Le%20Croisic"},"geometry":{"type":"Point","coordinates":[-2.51, 47.287]},"id":"ak020frm4jci"},
{"type":"Feature","properties":{"name":"Nantes"},"geometry":{"type":"Point","coordinates":[-1.529, 47.259]},"id":"ak020frm4jci"},
{"type":"Feature","properties":{"name":"Pornichet"},"geometry":{"type":"Point","coordinates":[-2.314, 47.252]},"id":"ak020frm4jci"},
{"type":"Feature","properties":{"name":"Le%20Pouliguen"},"geometry":{"type":"Point","coordinates":[-2.439, 47.277]},"id":"ak020frm4jci"},
{"type":"Feature","properties":{"name":"Saint-Nazaire"},"geometry":{"type":"Point","coordinates":[-2.184, 47.299]},"id":"ak020frm4jci"},
{"type":"Feature","properties":{"name":"Agen"},"geometry":{"type":"Point","coordinates":[0.618, 44.206]},"id":"ak020frm4jci"},
{"type":"Feature","properties":{"name":"Angers-Saint-Laud"},"geometry":{"type":"Point","coordinates":[-0.552, 47.473]},"id":"ak020frm4jci"},
{"type":"Feature","properties":{"name":"Saumur"},"geometry":{"type":"Point","coordinates":[-0.073, 47.263]},"id":"ak020frm4jci"},
{"type":"Feature","properties":{"name":"Ch%EF%BF%BDlons-en-Champagne"},"geometry":{"type":"Point","coordinates":[4.362, 48.956]},"id":"ak020frm4jci"},
{"type":"Feature","properties":{"name":"Reims"},"geometry":{"type":"Point","coordinates":[4.041, 49.245]},"id":"ak020frm4jci"},
{"type":"Feature","properties":{"name":"Vitry-le-Fran%EF%BF%BDois"},"geometry":{"type":"Point","coordinates":[4.597, 48.73]},"id":"ak020frm4jci"},
{"type":"Feature","properties":{"name":"Laval"},"geometry":{"type":"Point","coordinates":[-0.76, 48.077]},"id":"ak020frm4jci"},
{"type":"Feature","properties":{"name":"Lun%EF%BF%BDville"},"geometry":{"type":"Point","coordinates":[6.483, 48.585]},"id":"ak020frm4jci"},
{"type":"Feature","properties":{"name":"Nancy-Ville"},"geometry":{"type":"Point","coordinates":[6.224, 48.703]},"id":"ak020frm4jci"},
{"type":"Feature","properties":{"name":"Bar-le-Duc"},"geometry":{"type":"Point","coordinates":[5.194, 48.756]},"id":"ak020frm4jci"},
{"type":"Feature","properties":{"name":"Auray"},"geometry":{"type":"Point","coordinates":[-2.988, 47.663]},"id":"ak020frm4jci"},
{"type":"Feature","properties":{"name":"Lorient"},"geometry":{"type":"Point","coordinates":[-3.384, 47.759]},"id":"ak020frm4jci"},
{"type":"Feature","properties":{"name":"Vannes"},"geometry":{"type":"Point","coordinates":[-2.773, 47.636]},"id":"ak020frm4jci"},
{"type":"Feature","properties":{"name":"Forbach"},"geometry":{"type":"Point","coordinates":[6.895, 49.18]},"id":"ak020frm4jci"},
{"type":"Feature","properties":{"name":"Metz-Ville"},"geometry":{"type":"Point","coordinates":[6.155, 49.101]},"id":"ak020frm4jci"},
{"type":"Feature","properties":{"name":"Sarrebourg"},"geometry":{"type":"Point","coordinates":[7.052, 48.735]},"id":"ak020frm4jci"},
{"type":"Feature","properties":{"name":"Thionville"},"geometry":{"type":"Point","coordinates":[6.144, 49.362]},"id":"ak020frm4jci"},
{"type":"Feature","properties":{"name":"Croix%20-%20Wasquehal"},"geometry":{"type":"Point","coordinates":[3.135, 50.678]},"id":"ak020frm4jci"},
{"type":"Feature","properties":{"name":"Douai"},"geometry":{"type":"Point","coordinates":[3.09, 50.39]},"id":"ak020frm4jci"},
{"type":"Feature","properties":{"name":"Dunkerque"},"geometry":{"type":"Point","coordinates":[2.389, 51.046]},"id":"ak020frm4jci"},
{"type":"Feature","properties":{"name":"Hazebrouck"},"geometry":{"type":"Point","coordinates":[2.726, 50.738]},"id":"ak020frm4jci"},
{"type":"Feature","properties":{"name":"Lille-Europe"},"geometry":{"type":"Point","coordinates":[3.074, 50.641]},"id":"ak020frm4jci"},
{"type":"Feature","properties":{"name":"Lille-Flandres"},"geometry":{"type":"Point","coordinates":[3.056, 50.628]},"id":"ak020frm4jci"},
{"type":"Feature","properties":{"name":"Roubaix"},"geometry":{"type":"Point","coordinates":[3.17, 50.701]},"id":"ak020frm4jci"},
{"type":"Feature","properties":{"name":"Tourcoing"},"geometry":{"type":"Point","coordinates":[3.141, 50.718]},"id":"ak020frm4jci"},
{"type":"Feature","properties":{"name":"Valenciennes"},"geometry":{"type":"Point","coordinates":[3.517, 50.342]},"id":"ak020frm4jci"},
{"type":"Feature","properties":{"name":"Boulogne-Ville"},"geometry":{"type":"Point","coordinates":[2.707, 49.607]},"id":"ak020frm4jci"},
{"type":"Feature","properties":{"name":"Arras"},"geometry":{"type":"Point","coordinates":[2.778, 50.29]},"id":"ak020frm4jci"},
{"type":"Feature","properties":{"name":"B%EF%BF%BDthune"},"geometry":{"type":"Point","coordinates":[2.636, 50.517]},"id":"ak020frm4jci"},
{"type":"Feature","properties":{"name":"Calais%20-%20Fr%EF%BF%BDthun"},"geometry":{"type":"Point","coordinates":[1.85, 50.935]},"id":"ak020frm4jci"},
{"type":"Feature","properties":{"name":"Calais-Ville"},"geometry":{"type":"Point","coordinates":[3.063, 50.43]},"id":"ak020frm4jci"},
{"type":"Feature","properties":{"name":"taples%20-%20Le%20Touquet"},"geometry":{"type":"Point","coordinates":[1.589, 50.525]},"id":"ak020frm4jci"},
{"type":"Feature","properties":{"name":"Lens"},"geometry":{"type":"Point","coordinates":[3.027, 50.419]},"id":"ak020frm4jci"},
{"type":"Feature","properties":{"name":"Rang-du-Fliers%20-%20Verton"},"geometry":{"type":"Point","coordinates":[1.619, 50.414]},"id":"ak020frm4jci"},
{"type":"Feature","properties":{"name":"Bayonne"},"geometry":{"type":"Point","coordinates":[-1.443, 43.503]},"id":"ak020frm4jci"},
{"type":"Feature","properties":{"name":"Biarritz"},"geometry":{"type":"Point","coordinates":[-1.555, 43.472]},"id":"ak020frm4jci"},
{"type":"Feature","properties":{"name":"Hendaye"},"geometry":{"type":"Point","coordinates":[-1.774, 43.355]},"id":"ak020frm4jci"},
{"type":"Feature","properties":{"name":"Orthez"},"geometry":{"type":"Point","coordinates":[-0.768, 43.491]},"id":"ak020frm4jci"},
{"type":"Feature","properties":{"name":"Pau"},"geometry":{"type":"Point","coordinates":[-0.35, 43.295]},"id":"ak020frm4jci"},
{"type":"Feature","properties":{"name":"Saint-Jean-de-Luz%20-%20Ciboure"},"geometry":{"type":"Point","coordinates":[-1.676, 43.381]},"id":"ak020frm4jci"},
{"type":"Feature","properties":{"name":"Lourdes"},"geometry":{"type":"Point","coordinates":[-0.049, 43.095]},"id":"ak020frm4jci"},
{"type":"Feature","properties":{"name":"Tarbes"},"geometry":{"type":"Point","coordinates":[0.071, 43.232]},"id":"ak020frm4jci"},
{"type":"Feature","properties":{"name":"Perpignan"},"geometry":{"type":"Point","coordinates":[2.888, 42.697]},"id":"ak020frm4jci"},
{"type":"Feature","properties":{"name":"Saverne"},"geometry":{"type":"Point","coordinates":[7.359, 48.744]},"id":"ak020frm4jci"},
{"type":"Feature","properties":{"name":"S%EF%BF%BDlestat"},"geometry":{"type":"Point","coordinates":[7.441, 48.265]},"id":"ak020frm4jci"},
{"type":"Feature","properties":{"name":"Strasbourg-Ville"},"geometry":{"type":"Point","coordinates":[7.76, 48.561]},"id":"ak020frm4jci"},
{"type":"Feature","properties":{"name":"Colmar"},"geometry":{"type":"Point","coordinates":[7.361, 48.077]},"id":"ak020frm4jci"},
{"type":"Feature","properties":{"name":"Mulhouse-Ville"},"geometry":{"type":"Point","coordinates":[7.34, 47.746]},"id":"ak020frm4jci"},
{"type":"Feature","properties":{"name":"Besan%EF%BF%BDon%20Franche-Comt%EF%BF%BD%20TGV"},"geometry":{"type":"Point","coordinates":[4.706, 45.985]},"id":"ak020frm4jci"},
{"type":"Feature","properties":{"name":"Lyon-Part-Dieu"},"geometry":{"type":"Point","coordinates":[4.841, 45.759]},"id":"ak020frm4jci"},
{"type":"Feature","properties":{"name":"Lyon-Perrache"},"geometry":{"type":"Point","coordinates":[4.828, 45.749]},"id":"ak020frm4jci"},
{"type":"Feature","properties":{"name":"Lyon-Saint-Exup%EF%BF%BDry%20TGV"},"geometry":{"type":"Point","coordinates":[4.828, 45.758]},"id":"ak020frm4jci"},
{"type":"Feature","properties":{"name":"Marne-la-Vall%EF%BF%BDe%20-%20Chessy"},"geometry":{"type":"Point","coordinates":[4.621, 45.888]},"id":"ak020frm4jci"},
{"type":"Feature","properties":{"name":"Paris-Gare-de-Lyon"},"geometry":{"type":"Point","coordinates":[4.804, 45.78]},"id":"ak020frm4jci"},
{"type":"Feature","properties":{"name":"Dole-Ville"},"geometry":{"type":"Point","coordinates":[5.589, 47.439]},"id":"ak020frm4jci"},
{"type":"Feature","properties":{"name":"Chalon-sur-Sa%EF%BF%BDne"},"geometry":{"type":"Point","coordinates":[4.841, 46.789]},"id":"ak020frm4jci"},
{"type":"Feature","properties":{"name":"Le%20Creusot%20-%20Montceau"},"geometry":{"type":"Point","coordinates":[4.377, 46.669]},"id":"ak020frm4jci"},
{"type":"Feature","properties":{"name":"M%EF%BF%BDcon-Loch%EF%BF%BD%20TGV"},"geometry":{"type":"Point","coordinates":[4.784, 46.277]},"id":"ak020frm4jci"},
{"type":"Feature","properties":{"name":"Le%20Mans"},"geometry":{"type":"Point","coordinates":[0.192, 47.999]},"id":"ak020frm4jci"},
{"type":"Feature","properties":{"name":"Sabl%EF%BF%BD-sur-Sarthe"},"geometry":{"type":"Point","coordinates":[-0.329, 47.837]},"id":"ak020frm4jci"},
{"type":"Feature","properties":{"name":"Aime-La%20Plagne"},"geometry":{"type":"Point","coordinates":[6.606, 45.573]},"id":"ak020frm4jci"},
{"type":"Feature","properties":{"name":"Aix-les-Bains-Le%20Revard"},"geometry":{"type":"Point","coordinates":[5.919, 45.69]},"id":"ak020frm4jci"},
{"type":"Feature","properties":{"name":"Albertville"},"geometry":{"type":"Point","coordinates":[6.384, 45.659]},"id":"ak020frm4jci"},
{"type":"Feature","properties":{"name":"Bourg-Saint-Maurice"},"geometry":{"type":"Point","coordinates":[6.828, 45.573]},"id":"ak020frm4jci"},
{"type":"Feature","properties":{"name":"Chamb%EF%BF%BDry%20-%20Challes-les-Eaux"},"geometry":{"type":"Point","coordinates":[5.975, 45.559]},"id":"ak020frm4jci"},
{"type":"Feature","properties":{"name":"Landry"},"geometry":{"type":"Point","coordinates":[6.736, 45.576]},"id":"ak020frm4jci"},
{"type":"Feature","properties":{"name":"Modane"},"geometry":{"type":"Point","coordinates":[6.671, 45.201]},"id":"ak020frm4jci"},
{"type":"Feature","properties":{"name":"Mo%EF%BF%BDtiers%20-%20Salins%20"},"geometry":{"type":"Point","coordinates":[6.567, 45.452]},"id":"ak020frm4jci"},
{"type":"Feature","properties":{"name":"Saint-Avre%20-%20La%20Chambre"},"geometry":{"type":"Point","coordinates":[6.304, 45.356]},"id":"ak020frm4jci"},
{"type":"Feature","properties":{"name":"Saint-Jean-de-Maurienne"},"geometry":{"type":"Point","coordinates":[6.352, 45.272]},"id":"ak020frm4jci"},
{"type":"Feature","properties":{"name":"Annecy"},"geometry":{"type":"Point","coordinates":[6.119, 45.898]},"id":"ak020frm4jci"},
{"type":"Feature","properties":{"name":"Annemasse"},"geometry":{"type":"Point","coordinates":[6.242, 46.185]},"id":"ak020frm4jci"},
{"type":"Feature","properties":{"name":"vian-les-Bain"},"geometry":{"type":"Point","coordinates":[6.602, 46.398]},"id":"ak020frm4jci"},
{"type":"Feature","properties":{"name":"Saint-Gervais-les-Bains"},"geometry":{"type":"Point","coordinates":[6.682, 45.868]},"id":"ak020frm4jci"},
{"type":"Feature","properties":{"name":"Sallanches%20-%20Combloux%20-%20"},"geometry":{"type":"Point","coordinates":[6.643, 45.901]},"id":"ak020frm4jci"},
{"type":"Feature","properties":{"name":"Thonon-les-Bains"},"geometry":{"type":"Point","coordinates":[6.485, 46.374]},"id":"ak020frm4jci"},
{"type":"Feature","properties":{"name":"Paris-Est"},"geometry":{"type":"Point","coordinates":[2.395, 48.871]},"id":"ak020frm4jci"},
{"type":"Feature","properties":{"name":"Paris-Montparnasse"},"geometry":{"type":"Point","coordinates":[2.317, 48.838]},"id":"ak020frm4jci"},
{"type":"Feature","properties":{"name":"Paris-Nord"},"geometry":{"type":"Point","coordinates":[2.356, 48.881]},"id":"ak020frm4jci"},
{"type":"Feature","properties":{"name":"Le%20Havre"},"geometry":{"type":"Point","coordinates":[0.174, 49.505]},"id":"ak020frm4jci"},
{"type":"Feature","properties":{"name":"Charles-de-Gaulle"},"geometry":{"type":"Point","coordinates":[2.571, 49.006]},"id":"ak020frm4jci"},
{"type":"Feature","properties":{"name":"Mantes-la-Jolie"},"geometry":{"type":"Point","coordinates":[1.721, 48.994]},"id":"ak020frm4jci"},
{"type":"Feature","properties":{"name":"Versailles-Chantiers"},"geometry":{"type":"Point","coordinates":[2.136, 48.797]},"id":"ak020frm4jci"},
{"type":"Feature","properties":{"name":"Niort"},"geometry":{"type":"Point","coordinates":[-0.458, 46.319]},"id":"ak020frm4jci"},
{"type":"Feature","properties":{"name":"Saint-Maixent%20%28Deux-S%EF%BF%BDvres%29"},"geometry":{"type":"Point","coordinates":[-0.205, 46.409]},"id":"ak020frm4jci"},
{"type":"Feature","properties":{"name":"Amiens"},"geometry":{"type":"Point","coordinates":[2.289, 49.9]},"id":"ak020frm4jci"},
{"type":"Feature","properties":{"name":"Les%20Arcs%20-%20Draguignan"},"geometry":{"type":"Point","coordinates":[6.483, 43.504]},"id":"ak020frm4jci"},
{"type":"Feature","properties":{"name":"Hy%EF%BF%BDres"},"geometry":{"type":"Point","coordinates":[6.123, 43.09]},"id":"ak020frm4jci"},
{"type":"Feature","properties":{"name":"Saint-Rapha%EF%BF%BDl-Valescure"},"geometry":{"type":"Point","coordinates":[6.776, 43.441]},"id":"ak020frm4jci"},
{"type":"Feature","properties":{"name":"Toulon"},"geometry":{"type":"Point","coordinates":[5.964, 43.133]},"id":"ak020frm4jci"},
{"type":"Feature","properties":{"name":"Avignon-Centre"},"geometry":{"type":"Point","coordinates":[5.031, 44.046]},"id":"ak020frm4jci"},
{"type":"Feature","properties":{"name":"Orange"},"geometry":{"type":"Point","coordinates":[4.812, 44.14]},"id":"ak020frm4jci"},
{"type":"Feature","properties":{"name":"La%20Roche-sur-Yon"},"geometry":{"type":"Point","coordinates":[-1.432, 46.67]},"id":"ak020frm4jci"},
{"type":"Feature","properties":{"name":"Les%20Sables-d%27Olonne"},"geometry":{"type":"Point","coordinates":[-1.758, 46.479]},"id":"ak020frm4jci"},
{"type":"Feature","properties":{"name":"Ch%EF%BF%BDtellerault"},"geometry":{"type":"Point","coordinates":[0.525, 46.796]},"id":"ak020frm4jci"},
{"type":"Feature","properties":{"name":"Futuroscope"},"geometry":{"type":"Point","coordinates":[0.362, 46.659]},"id":"ak020frm4jci"},
{"type":"Feature","properties":{"name":"Poitiers"},"geometry":{"type":"Point","coordinates":[0.335, 46.579]},"id":"ak020frm4jci"},
{"type":"Feature","properties":{"name":"pinal"},"geometry":{"type":"Point","coordinates":[6.45, 48.175]},"id":"ak020frm4jci"},
{"type":"Feature","properties":{"name":"Remiremont"},"geometry":{"type":"Point","coordinates":[6.604, 48.006]},"id":"ak020frm4jci"},
{"type":"Feature","properties":{"name":"Saint-Di%EF%BF%BD-des-Vosges"},"geometry":{"type":"Point","coordinates":[6.962, 48.293]},"id":"ak020frm4jci"},
{"type":"Feature","properties":{"name":"Saint-Michel%20-%20Valloire"},"geometry":{"type":"Point","coordinates":[6.134, 48.157]},"id":"ak020frm4jci"},
{"type":"Feature","properties":{"name":"Belfort%20-%20Montb%EF%BF%BDliard%20TGV"},"geometry":{"type":"Point","coordinates":[6.858, 47.637]},"id":"ak020frm4jci"},
{"type":"Feature","properties":{"name":"Massy%20-%20Palaiseau"},"geometry":{"type":"Point","coordinates":[2.243, 48.731]},"id":"ak020frm4jci"},
{"type":"Feature","properties":{"name":"Massy%20TGV"},"geometry":{"type":"Point","coordinates":[2.291, 48.736]},"id":"ak020frm4jci"}
]}
